city,state_abbr,county,lat,lng,population,zips,building_count,tier,slug,label,city_state_slug,path,source,officefinder_code,incorporated,cdp,ranking,simplemaps_matched,is_new_candidate
Athens,AL,Limestone County,34.7843,-86.9503,29002,35611 35613 35612,0,3,athens,"Athens, AL",athens-al,/commercial-real-estate/AL/athens/,officefinder+simplemaps,2453,TRUE,FALSE,3,true,true
Birmingham,AL,Jefferson County,33.5186,-86.8104,773997,35218 35214 35215 35217 35210 35211 35212 35213 35224 35221 35222 35203 35207 35206 35205 35204 35209 35208 35094 35254 35068 35061 35228 35234 35235 35233 35243 35242 35249 35201 35202 35220 35232 35238 35246 35255 35259 35261 35270 35282 35283 35285 35287 35290 35291 35292 35294 35295 35298,655,2,birmingham,"Birmingham, AL",birmingham-al,/commercial-real-estate/AL/birmingham/,rofo,,,,,true,
Homewood,AL,Jefferson County,33.4619,-86.809,27829,35229 35209 35219 35293,0,3,homewood,"Homewood, AL",homewood-al,/commercial-real-estate/AL/homewood/,officefinder+simplemaps,2219,TRUE,FALSE,3,true,true
Hoover,AL,Jefferson County,33.3763,-86.8068,92642,35216 35226 35244 35242 35236 35260,0,3,hoover,"Hoover, AL",hoover-al,/commercial-real-estate/AL/hoover/,officefinder+simplemaps,1646,TRUE,FALSE,3,true,true
Huntsville,AL,Madison County,34.7304,-86.5861,368074,35801 35803 35802 35805 35806 35741 35824 35763 35757 35756 35810 35811 35816 35896 35742 35762 35804 35807 35809 35814 35815 35893 35894 35895 35897 35899,352,2,huntsville,"Huntsville, AL",huntsville-al,/commercial-real-estate/AL/huntsville/,rofo,,,,,true,
Madison,AL,Madison County,34.7114,-86.7626,60106,35756 35758,0,3,madison,"Madison, AL",madison-al,/commercial-real-estate/AL/madison/,officefinder+simplemaps,2216,TRUE,FALSE,3,true,true
Mobile,AL,Mobile County,30.6954,-88.0399,316714,36652 36606 36607 36604 36605 36602 36603 36608 36609 36688 36582 36615 36617 36611 36610 36619 36618 36695 36693 36601 36616 36628 36633 36640 36644 36660 36670 36675 36689 36691,402,2,mobile,"Mobile, AL",mobile-al,/commercial-real-estate/AL/mobile/,rofo,,,,,true,
Montgomery,AL,Montgomery County,32.3668,-86.3,254752,36112 36113 36110 36111 36116 36114 36115 36109 36130 36117 36101 36105 36104 36107 36106 36057 36108 36118 36120 36121 36123 36124 36125 36131 36132 36135 36140 36141 36142 36177 36191,301,2,montgomery,"Montgomery, AL",montgomery-al,/commercial-real-estate/AL/montgomery/,rofo,,,,,true,
Vestavia Hills,AL,Jefferson County,33.4518,-86.7437,38616,35216 35243 35242 35266 35288 35296,0,3,vestavia-hills,"Vestavia Hills, AL",vestavia-hills-al,/commercial-real-estate/AL/vestavia-hills/,officefinder+simplemaps,2220,TRUE,FALSE,3,true,true
Bentonville,AR,Benton County,36.3547,-94.2305,58249,72713 72712,2,3,bentonville,"Bentonville, AR",bentonville-ar,/commercial-real-estate/AR/bentonville/,rofo,,,,,true,
Fayetteville,AR,Washington County,36.0822,-94.1719,408133,72704 72703 72701 72702,220,3,fayetteville,"Fayetteville, AR",fayetteville-ar,/commercial-real-estate/AR/fayetteville/,rofo,,,,,true,
Fort Smith,AR,Sebastian County,35.3859,-94.3985,124220,72908 72901 72904 72923 72916 72903 72906 72913 72914 72917 72918 72919,220,3,fort-smith,"Fort Smith, AR",fort-smith-ar,/commercial-real-estate/AR/fort-smith/,rofo,,,,,true,
Little Rock,AR,Pulaski County,34.7465,-92.2896,466334,72211 72210 72212 72223 72227 72209 72202 72201 72206 72207 72204 72205 72103 72215 72217 72219 72222 72225 72231 72255 72260 72295,451,2,little-rock,"Little Rock, AR",little-rock-ar,/commercial-real-estate/AR/little-rock/,rofo,,,,,true,
Carefree,AZ,Maricopa County,33.8234,-111.9161,3683,85377,0,3,carefree,"Carefree, AZ",carefree-az,/commercial-real-estate/AZ/carefree/,officefinder+simplemaps,2188,TRUE,FALSE,3,true,true
Chandler,AZ,Maricopa County,33.2825,-111.8514,280136,85248 85249 85226 85224 85225 85286 85246,1,3,chandler,"Chandler, AZ",chandler-az,/commercial-real-estate/AZ/chandler/,rofo,,,,,true,
Flagstaff,AZ,Coconino County,35.1872,-111.6194,81235,86011 86005 86004 86001 86002,1,3,flagstaff,"Flagstaff, AZ",flagstaff-az,/commercial-real-estate/AZ/flagstaff/,rofo,,,,,true,
Mesa,AZ,Maricopa County,33.4015,-111.7178,511764,85208 85209 85201 85202 85203 85204 85205 85206 85207 85215 85213 85212 85210 85211 85214 85216 85274 85275 85277,3,3,mesa,"Mesa, AZ",mesa-az,/commercial-real-estate/AZ/mesa/,rofo,,,,,true,
Oro Valley,AZ,Pima County,32.4208,-110.9767,48162,85755 85704 85742 85737,0,3,oro-valley,"Oro Valley, AZ",oro-valley-az,/commercial-real-estate/AZ/oro-valley/,officefinder+simplemaps,1937,TRUE,FALSE,3,true,true
Paradise Valley,AZ,Maricopa County,33.5434,-111.9595,12611,85253,0,3,paradise-valley,"Paradise Valley, AZ",paradise-valley-az,/commercial-real-estate/AZ/paradise-valley/,officefinder+simplemaps,1918,TRUE,FALSE,3,true,true
Phoenix,AZ,Maricopa County,33.4484,-112.074,4121103,85009 85003 85006 85007 85004 85083 85086 85087 85085 85331 85033 85306 85308 85020 85021 85022 85023 85024 85026 85027 85028 85029 85353 85019 85018 85013 85012 85015 85014 85016 85254 85008 85044 85045 85042 85043 85040 85041 85048 85037 85035 85034 85032 85031 85017 85304 85307 85266 85310 85054 85051 85050 85053 85001 85002 85005 85010 85011 85030 85036 85038 85046 85060 85061 85062 85063 85064 85066 85067 85068 85069 85070 85071 85072 85074 85076 85078 85079 85080 85082,1314,1,phoenix,"Phoenix, AZ",phoenix-az,/commercial-real-estate/AZ/phoenix/,rofo,,,,,true,
Scottsdale,AZ,Maricopa County,33.4942,-111.9261,243821,85259 85258 85251 85250 85257 85255 85254 85266 85262 85260 85252 85261 85267 85271,429,2,scottsdale,"Scottsdale, AZ",scottsdale-az,/commercial-real-estate/AZ/scottsdale/,rofo,,,,,true,
Tempe,AZ,Maricopa County,33.4255,-111.94,188065,85281 85282 85283 85284 85280 85285 85287 85288,362,2,tempe,"Tempe, AZ",tempe-az,/commercial-real-estate/AZ/tempe/,rofo,,,,,true,
Tucson,AZ,Pima County,32.2226,-110.9747,890860,85705 85707 85706 85709 85710 85756 85723 85726 85724 85701 85708 85719 85748 85745 85747 85716 85714 85715 85712 85713 85711 85734 85730 85721 85702 85703 85717 85725 85731 85732 85738 85751 85754 85775,652,2,tucson,"Tucson, AZ",tucson-az,/commercial-real-estate/AZ/tucson/,rofo,,,,,true,
Alameda,CA,Alameda County,37.7668,-122.267,77238,94501 94502,1,3,alameda,"Alameda, CA",alameda-ca,/commercial-real-estate/CA/alameda/,rofo,,,,,true,
Alhambra,CA,Los Angeles County,34.084,-118.1355,81022,91803 91801 91802 91804 91896 91899,0,3,alhambra,"Alhambra, CA",alhambra-ca,/commercial-real-estate/CA/alhambra/,officefinder+simplemaps,1578,TRUE,FALSE,2,true,true
Aliso Viejo,CA,Orange County,33.5792,-117.7289,51113,92656,0,3,aliso-viejo,"Aliso Viejo, CA",aliso-viejo-ca,/commercial-real-estate/CA/aliso-viejo/,officefinder+simplemaps,1579,TRUE,FALSE,2,true,true
Anaheim,CA,Orange County,33.839,-117.8574,344521,92808 92806 92807 92804 92805 92802 92801 92803 92809 92812 92815 92816 92817 92825 92899,1,3,anaheim,"Anaheim, CA",anaheim-ca,/commercial-real-estate/CA/anaheim/,rofo,,,,,true,
Arcadia,CA,Los Angeles County,34.1342,-118.0373,55170,91006 91007 91066 91077,1,3,arcadia,"Arcadia, CA",arcadia-ca,/commercial-real-estate/CA/arcadia/,rofo,,,,,true,
Atwater,CA,Merced County,37.3529,-120.5959,32162,95301,0,3,atwater,"Atwater, CA",atwater-ca,/commercial-real-estate/CA/atwater/,officefinder+simplemaps,1625,TRUE,FALSE,3,true,true
Bakersfield,CA,Kern County,35.3733,-119.0187,566351,93306 93307 93304 93305 93301 93309 93314 93311 93313 93312 93302 93383 93384 93385 93387 93389 93390,602,2,bakersfield,"Bakersfield, CA",bakersfield-ca,/commercial-real-estate/CA/bakersfield/,rofo,,,,,true,
Berkeley,CA,Alameda County,37.8715,-122.273,120257,94708 94707 94705 94704 94703 94702 94709 94710 94720 94701 94712,311,2,berkeley,"Berkeley, CA",berkeley-ca,/commercial-real-estate/CA/berkeley/,rofo,,,,,true,
Beverly Hills,CA,Los Angeles County,34.0786,-118.4021,31624,90211 90210 90212 90209,2,3,beverly-hills,"Beverly Hills, CA",beverly-hills-ca,/commercial-real-estate/CA/beverly-hills/,rofo,,,,,true,
Brea,CA,Orange County,33.9254,-117.8655,47469,92821 92823 92822,1,3,brea,"Brea, CA",brea-ca,/commercial-real-estate/CA/brea/,rofo,,,,,true,
Burbank,CA,Los Angeles County,34.1808,-118.309,104546,91506 91504 91505 91502 91501 91503 91507 91508 91510 91521 91522 91523,412,2,burbank,"Burbank, CA",burbank-ca,/commercial-real-estate/CA/burbank/,rofo,,,,,true,
Calabasas,CA,Los Angeles County,34.1375,-118.6689,22669,91302 91372,1,3,calabasas,"Calabasas, CA",calabasas-ca,/commercial-real-estate/CA/calabasas/,rofo,,,,,true,
Cameron,CA,Mendocino County,39.2724,-123.5545,,95427,0,3,cameron,"Cameron, CA",cameron-ca,/commercial-real-estate/CA/cameron/,officefinder+simplemaps,2514,FALSE,FALSE,5,true,true
Campbell,CA,Santa Clara County,37.2802,-121.9539,42781,95008 95009 95011,2,3,campbell,"Campbell, CA",campbell-ca,/commercial-real-estate/CA/campbell/,rofo,,,,,true,
Capitola,CA,Santa Cruz County,36.9773,-121.9537,9689,95010,0,3,capitola,"Capitola, CA",capitola-ca,/commercial-real-estate/CA/capitola/,officefinder+simplemaps,1613,TRUE,FALSE,2,true,true
Carlsbad,CA,San Diego County,33.1581,-117.3506,114373,92008 92009 92011 92010 92013 92018,272,2,carlsbad,"Carlsbad, CA",carlsbad-ca,/commercial-real-estate/CA/carlsbad/,rofo,,,,,true,
Carson,CA,Los Angeles County,33.8374,-118.2559,92871,90248 90810 90747 90746 90745 90224 90749 90895,0,3,carson,"Carson, CA",carson-ca,/commercial-real-estate/CA/carson/,officefinder+simplemaps,2276,TRUE,FALSE,3,true,true
Ceres,CA,Stanislaus County,37.5952,-120.962,49342,95358 95351 95307,0,3,ceres,"Ceres, CA",ceres-ca,/commercial-real-estate/CA/ceres/,officefinder+simplemaps,1615,TRUE,FALSE,3,true,true
Cerritos,CA,Los Angeles County,33.8678,-118.0686,47867,90703,1,3,cerritos,"Cerritos, CA",cerritos-ca,/commercial-real-estate/CA/cerritos/,rofo,,,,,true,
Chula Vista,CA,San Diego County,32.6281,-117.0144,276375,91911 91910 91913 91915 91914 91902 91908 91909 91912 91921,1,3,chula-vista,"Chula Vista, CA",chula-vista-ca,/commercial-real-estate/CA/chula-vista/,rofo,,,,,true,
Clovis,CA,Fresno County,36.8278,-119.683,124725,93611 93612 93619 93613 93747,0,2,clovis,"Clovis, CA",clovis-ca,/commercial-real-estate/CA/clovis/,officefinder+simplemaps,1534,TRUE,FALSE,2,true,true
Commerce,CA,Los Angeles County,33.9963,-118.1519,11993,90040 90022 90023 90091,1,3,commerce,"Commerce, CA",commerce-ca,/commercial-real-estate/CA/commerce/,rofo,,,,,true,
Compton,CA,Los Angeles County,33.893,-118.2274,92698,90220 90221 90222 90223,0,3,compton,"Compton, CA",compton-ca,/commercial-real-estate/CA/compton/,officefinder+simplemaps,2139,TRUE,FALSE,2,true,true
Concord,CA,Contra Costa County,37.9722,-122.0016,531305,94518 94519 94565 94521 94520 94522 94524 94527,1,3,concord,"Concord, CA",concord-ca,/commercial-real-estate/CA/concord/,rofo,,,,,true,
Corte Madera,CA,Marin County,37.9238,-122.5128,10077,94925 94976,0,3,corte-madera,"Corte Madera, CA",corte-madera-ca,/commercial-real-estate/CA/corte-madera/,officefinder+simplemaps,1358,TRUE,FALSE,3,true,true
Costa Mesa,CA,Orange County,33.6667,-117.9135,110330,92626 92627 92628,3,3,costa-mesa,"Costa Mesa, CA",costa-mesa-ca,/commercial-real-estate/CA/costa-mesa/,rofo,,,,,true,
Cotati,CA,Sonoma County,38.3278,-122.7092,7489,94931 94926,0,3,cotati,"Cotati, CA",cotati-ca,/commercial-real-estate/CA/cotati/,officefinder+simplemaps,1359,TRUE,FALSE,3,true,true
Covina,CA,Los Angeles County,34.0903,-117.8818,49888,91724 91722 91723,0,3,covina,"Covina, CA",covina-ca,/commercial-real-estate/CA/covina/,officefinder+simplemaps,2225,TRUE,FALSE,2,true,true
Culver City,CA,Los Angeles County,34.0058,-118.3968,39931,90232 90230 90231,1,3,culver-city,"Culver City, CA",culver-city-ca,/commercial-real-estate/CA/culver-city/,rofo,,,,,true,
Cupertino,CA,Santa Clara County,37.3168,-122.0466,58566,95014 95015 95108 95170,0,3,cupertino,"Cupertino, CA",cupertino-ca,/commercial-real-estate/CA/cupertino/,officefinder+simplemaps,58,TRUE,FALSE,2,true,true
Dana Point,CA,Orange County,33.4733,-117.6967,32790,92629 92624,0,3,dana-point,"Dana Point, CA",dana-point-ca,/commercial-real-estate/CA/dana-point/,officefinder+simplemaps,1886,TRUE,FALSE,3,true,true
Danville,CA,Contra Costa County,37.8121,-121.9698,43401,94506 94526,0,3,danville,"Danville, CA",danville-ca,/commercial-real-estate/CA/danville/,officefinder+simplemaps,1628,TRUE,FALSE,3,true,true
Del Mar,CA,San Diego County,32.9635,-117.2624,3903,92014,0,3,del-mar,"Del Mar, CA",del-mar-ca,/commercial-real-estate/CA/del-mar/,officefinder+simplemaps,1869,TRUE,FALSE,3,true,true
Delano,CA,Kern County,35.7662,-119.2635,51679,93215,0,3,delano,"Delano, CA",delano-ca,/commercial-real-estate/CA/delano/,officefinder+simplemaps,1535,TRUE,FALSE,3,true,true
Diamond Bar,CA,Los Angeles County,33.9992,-117.8161,53355,91789 91765,1,3,diamond-bar,"Diamond Bar, CA",diamond-bar-ca,/commercial-real-estate/CA/diamond-bar/,rofo,,,,,true,
Downey,CA,Los Angeles County,33.9379,-118.1311,110939,90242 90240 90241 90239,0,2,downey,"Downey, CA",downey-ca,/commercial-real-estate/CA/downey/,officefinder+simplemaps,2140,TRUE,FALSE,2,true,true
Duarte,CA,Los Angeles County,34.161,-117.9504,22184,91010 91009,0,3,duarte,"Duarte, CA",duarte-ca,/commercial-real-estate/CA/duarte/,officefinder+simplemaps,2584,TRUE,FALSE,3,true,true
El Dorado Hills,CA,El Dorado County,38.675,-121.049,51026,95762 95682,1,3,el-dorado-hills,"El Dorado Hills, CA",el-dorado-hills-ca,/commercial-real-estate/CA/el-dorado-hills/,rofo,,,,,true,
El Segundo,CA,Los Angeles County,33.917,-118.4018,16769,90245,1,3,el-segundo,"El Segundo, CA",el-segundo-ca,/commercial-real-estate/CA/el-segundo/,rofo,,,,,true,
Elk Grove,CA,Sacramento County,38.4161,-121.3842,179155,95624 95757 95758 95759,1,3,elk-grove,"Elk Grove, CA",elk-grove-ca,/commercial-real-estate/CA/elk-grove/,rofo,,,,,true,
Emeryville,CA,Alameda County,37.8382,-122.2932,13081,94608 94662,1,3,emeryville,"Emeryville, CA",emeryville-ca,/commercial-real-estate/CA/emeryville/,rofo,,,,,true,
Encinitas,CA,San Diego County,33.0492,-117.261,61480,92007 92075 92024,0,3,encinitas,"Encinitas, CA",encinitas-ca,/commercial-real-estate/CA/encinitas/,officefinder+simplemaps,1870,TRUE,FALSE,3,true,true
Encino,CA,,,,,,1,3,encino,"Encino, CA",encino-ca,/commercial-real-estate/CA/encino/,rofo,,,,,false,
Escalon,CA,San Joaquin County,37.7912,-120.9982,7451,95320,0,3,escalon,"Escalon, CA",escalon-ca,/commercial-real-estate/CA/escalon/,officefinder+simplemaps,1629,TRUE,FALSE,3,true,true
Escondido,CA,San Diego County,33.1348,-117.0723,149668,92029 92025 92026 92027 92030 92033 92046,1,3,escondido,"Escondido, CA",escondido-ca,/commercial-real-estate/CA/escondido/,rofo,,,,,true,
Folsom,CA,Sacramento County,38.6668,-121.1422,83916,95630 95671 95763,1,3,folsom,"Folsom, CA",folsom-ca,/commercial-real-estate/CA/folsom/,rofo,,,,,true,
Foster City,CA,San Mateo County,37.5553,-122.2659,32792,94404,0,3,foster-city,"Foster City, CA",foster-city-ca,/commercial-real-estate/CA/foster-city/,officefinder+simplemaps,779,TRUE,FALSE,2,true,true
Fountain Valley,CA,Orange County,33.7105,-117.9514,56258,92708 92728,0,3,fountain-valley,"Fountain Valley, CA",fountain-valley-ca,/commercial-real-estate/CA/fountain-valley/,officefinder+simplemaps,1887,TRUE,FALSE,2,true,true
Fresno,CA,Fresno County,36.7378,-119.7871,732197,93740 93741 93730 93650 93702 93703 93701 93706 93704 93705 93722 93728 93720 93721 93726 93727 93711 93710 93707 93708 93709 93714 93715 93716 93717 93718 93724 93729 93744 93745 93750 93755 93760 93761 93764 93765 93771 93772 93774 93775 93776 93777 93778 93779 93790 93791 93792 93793 93794 93844,700,2,fresno,"Fresno, CA",fresno-ca,/commercial-real-estate/CA/fresno/,rofo,,,,,true,
Gardena,CA,Los Angeles County,33.8943,-118.3072,59422,90249 90247,1,3,gardena,"Gardena, CA",gardena-ca,/commercial-real-estate/CA/gardena/,rofo,,,,,true,
Gilroy,CA,Santa Clara County,37.0046,-121.5854,116882,95020,0,2,gilroy,"Gilroy, CA",gilroy-ca,/commercial-real-estate/CA/gilroy/,officefinder+simplemaps,440,TRUE,FALSE,2,true,true
Glendale,CA,Los Angeles County,34.1819,-118.2468,190748,91210 91214 91201 91205 91208 91203 91202 91204 91207 91206 91046 91020 91209 91221 91222 91225 91226,3,3,glendale,"Glendale, CA",glendale-ca,/commercial-real-estate/CA/glendale/,rofo,,,,,true,
Hercules,CA,Contra Costa County,38.0064,-122.2564,26302,94547 94572,0,3,hercules,"Hercules, CA",hercules-ca,/commercial-real-estate/CA/hercules/,officefinder+simplemaps,1362,TRUE,FALSE,3,true,true
Hermosa Beach,CA,Los Angeles County,33.8653,-118.3962,19063,90254,1,3,hermosa-beach,"Hermosa Beach, CA",hermosa-beach-ca,/commercial-real-estate/CA/hermosa-beach/,rofo,,,,,true,
Irvine,CA,Orange County,33.6846,-117.8265,311690,92617 92614 92612 92618 92697 92620 92602 92603 92604 92606 92616 92619 92650 92698,466,2,irvine,"Irvine, CA",irvine-ca,/commercial-real-estate/CA/irvine/,rofo,,,,,true,
Irwindale,CA,Los Angeles County,34.1121,-117.9636,1377,91706 91010,0,3,irwindale,"Irwindale, CA",irwindale-ca,/commercial-real-estate/CA/irwindale/,officefinder+simplemaps,2242,TRUE,FALSE,3,true,true
La Jolla,CA,,,,,,1,3,la-jolla,"La Jolla, CA",la-jolla-ca,/commercial-real-estate/CA/la-jolla/,rofo,,,,,false,
La Mesa,CA,San Diego County,32.7703,-117.0204,60797,91941 91942 91943 91944,0,3,la-mesa,"La Mesa, CA",la-mesa-ca,/commercial-real-estate/CA/la-mesa/,officefinder+simplemaps,1866,TRUE,FALSE,2,true,true
La Palma,CA,Orange County,33.8504,-118.0407,15272,90623,1,3,la-palma,"La Palma, CA",la-palma-ca,/commercial-real-estate/CA/la-palma/,rofo,,,,,true,
La Verne,CA,Los Angeles County,34.1207,-117.7703,30600,91750,0,3,la-verne,"La Verne, CA",la-verne-ca,/commercial-real-estate/CA/la-verne/,officefinder+simplemaps,2623,TRUE,FALSE,3,true,true
Lafayette,CA,Contra Costa County,37.8919,-122.1189,25285,94549,0,3,lafayette,"Lafayette, CA",lafayette-ca,/commercial-real-estate/CA/lafayette/,officefinder+simplemaps,2240,TRUE,FALSE,3,true,true
Laguna Beach,CA,Orange County,33.5455,-117.7613,22710,92651 92652,0,3,laguna-beach,"Laguna Beach, CA",laguna-beach-ca,/commercial-real-estate/CA/laguna-beach/,officefinder+simplemaps,1889,TRUE,FALSE,3,true,true
Laguna Hills,CA,Orange County,33.5918,-117.6991,30740,92653,1,3,laguna-hills,"Laguna Hills, CA",laguna-hills-ca,/commercial-real-estate/CA/laguna-hills/,rofo,,,,,true,
Laguna Niguel,CA,Orange County,33.5275,-117.705,64139,92677 92607,0,3,laguna-niguel,"Laguna Niguel, CA",laguna-niguel-ca,/commercial-real-estate/CA/laguna-niguel/,officefinder+simplemaps,1890,TRUE,FALSE,3,true,true
Laguna Woods,CA,Orange County,33.6099,-117.7299,17289,92637 92654,0,3,laguna-woods,"Laguna Woods, CA",laguna-woods-ca,/commercial-real-estate/CA/laguna-woods/,officefinder+simplemaps,1891,TRUE,FALSE,2,true,true
Larkspur,CA,Marin County,37.9393,-122.5312,12854,94939 94904 94977,0,3,larkspur,"Larkspur, CA",larkspur-ca,/commercial-real-estate/CA/larkspur/,officefinder+simplemaps,1363,TRUE,FALSE,3,true,true
Lemon Grove,CA,San Diego County,32.7331,-117.0344,27686,91945 91946,0,3,lemon-grove,"Lemon Grove, CA",lemon-grove-ca,/commercial-real-estate/CA/lemon-grove/,officefinder+simplemaps,1871,TRUE,FALSE,2,true,true
Long Beach,CA,Los Angeles County,33.7701,-118.1937,455548,90822 90804 90805 90806 90807 90802 90803 90808 90831 90814 90813 90810 90815 90840 90801 90809 90832 90833 90842 90844 90846 90847 90848 90853,501,2,long-beach,"Long Beach, CA",long-beach-ca,/commercial-real-estate/CA/long-beach/,rofo,,,,,true,
Los Alamitos,CA,Orange County,33.7971,-118.0592,11794,90720 90721,0,3,los-alamitos,"Los Alamitos, CA",los-alamitos-ca,/commercial-real-estate/CA/los-alamitos/,officefinder+simplemaps,752,TRUE,FALSE,3,true,true
Los Altos,CA,Santa Clara County,37.3684,-122.0965,30698,94022 94024 94023,0,3,los-altos,"Los Altos, CA",los-altos-ca,/commercial-real-estate/CA/los-altos/,officefinder+simplemaps,438,TRUE,FALSE,3,true,true
Los Angeles,CA,Los Angeles County,34.0522,-118.2437,11984083,91367 90291 90293 90292 91316 91311 90035 90034 90037 90031 90039 90008 90004 90005 90006 90007 90001 90002 90003 91504 91040 90710 90089 91307 91344 91345 91340 91342 91343 90036 90247 91411 91436 91371 91608 91605 91604 91607 91606 91601 91602 90402 90068 90069 90062 90063 90061 90066 90067 90064 90065 90248 91326 91324 91325 90013 90012 90011 90010 90017 90016 90015 90014 91364 90028 90095 90094 91042 91352 91356 91406 91402 90041 90042 90043 90044 90045 90046 90047 90048 90049 90019 90018 91423 90210 91303 91304 91306 90079 90071 90077 90059 91331 91330 91335 90026 90027 90024 90025 90023 90020 90021 90029 90272 90732 90731 90230 91405 91403 91401 90033 90032 90038 90057 90052 90058 90744 90501 90502 90009 90030 90050 90051 90053 90054 90055 90060 90070 90072 90074 90075 90076 90078 90080 90081 90082 90083 90084 90085 90086 90087 90088 90093 90099 90134 90140 90189 90213 90294 90295 90733 90734 90748 91041 91043 91305 91308 91309 91313 91327 91328 91333 91334 91337 91346 91353 91357 91365 91392 91393 91394 91395 91396 91404 91407 91408 91409 91410 91412 91413 91416 91426 91470 91482 91499 91603 91609 91610 91614 91615 91616 91617 91618,2616,1,los-angeles,"Los Angeles, CA",los-angeles-ca,/commercial-real-estate/CA/los-angeles/,rofo,,,,,true,
Los Gatos,CA,Santa Clara County,37.2304,-121.9562,32786,95032 95030 95036,0,3,los-gatos,"Los Gatos, CA",los-gatos-ca,/commercial-real-estate/CA/los-gatos/,officefinder+simplemaps,2113,TRUE,FALSE,3,true,true
Malibu,CA,Los Angeles County,34.037,-118.7839,10421,90265,0,3,malibu,"Malibu, CA",malibu-ca,/commercial-real-estate/CA/malibu/,officefinder+simplemaps,2326,TRUE,FALSE,3,true,true
Manhattan Beach,CA,Los Angeles County,33.8894,-118.3967,34210,90266 90267,0,3,manhattan-beach,"Manhattan Beach, CA",manhattan-beach-ca,/commercial-real-estate/CA/manhattan-beach/,officefinder+simplemaps,2001,TRUE,FALSE,2,true,true
Manteca,CA,San Joaquin County,37.7927,-121.2264,94158,95337 95336,0,3,manteca,"Manteca, CA",manteca-ca,/commercial-real-estate/CA/manteca/,officefinder+simplemaps,1562,TRUE,FALSE,3,true,true
Menlo Park,CA,San Mateo County,37.4685,-122.1673,32727,94025 94026,1,3,menlo-park,"Menlo Park, CA",menlo-park-ca,/commercial-real-estate/CA/menlo-park/,rofo,,,,,true,
Mill Valley,CA,Marin County,37.9086,-122.5421,14012,94941 94942,0,3,mill-valley,"Mill Valley, CA",mill-valley-ca,/commercial-real-estate/CA/mill-valley/,officefinder+simplemaps,1364,TRUE,FALSE,3,true,true
Millbrae,CA,San Mateo County,37.5994,-122.4023,22689,94030,0,3,millbrae,"Millbrae, CA",millbrae-ca,/commercial-real-estate/CA/millbrae/,officefinder+simplemaps,1365,TRUE,FALSE,2,true,true
Mission Viejo,CA,Orange County,33.6096,-117.6551,647990,92692 92691 92690,1,3,mission-viejo,"Mission Viejo, CA",mission-viejo-ca,/commercial-real-estate/CA/mission-viejo/,rofo,,,,,true,
Modesto,CA,Stanislaus County,37.6375,-121.0028,359115,95358 95356 95355 95354 95351 95350 95352 95353 95397,0,2,modesto,"Modesto, CA",modesto-ca,/commercial-real-estate/CA/modesto/,officefinder+simplemaps,1563,TRUE,FALSE,2,true,true
Montclair,CA,San Bernardino County,34.0715,-117.6981,37810,91763,0,3,montclair,"Montclair, CA",montclair-ca,/commercial-real-estate/CA/montclair/,officefinder+simplemaps,2633,TRUE,FALSE,2,true,true
Montebello,CA,Los Angeles County,34.0155,-118.1108,61045,90640,0,3,montebello,"Montebello, CA",montebello-ca,/commercial-real-estate/CA/montebello/,officefinder+simplemaps,2145,TRUE,FALSE,2,true,true
Monterey Park,CA,Los Angeles County,34.0497,-118.1326,59132,91755 91754 91756,0,3,monterey-park,"Monterey Park, CA",monterey-park-ca,/commercial-real-estate/CA/monterey-park/,officefinder+simplemaps,2144,TRUE,FALSE,2,true,true
Mountain View,CA,Santa Clara County,37.4001,-122.0796,83732,94043 94040 94041 94039 94042,1,3,mountain-view,"Mountain View, CA",mountain-view-ca,/commercial-real-estate/CA/mountain-view/,rofo,,,,,true,
Napa,CA,Napa County,38.2975,-122.301,82103,94559 94558 94581,1,3,napa,"Napa, CA",napa-ca,/commercial-real-estate/CA/napa/,rofo,,,,,true,
National City,CA,San Diego County,32.6654,-117.0983,58893,92136 91950 91951,0,3,national-city,"National City, CA",national-city-ca,/commercial-real-estate/CA/national-city/,officefinder+simplemaps,1872,TRUE,FALSE,2,true,true
Newark,CA,Alameda County,37.5201,-122.0307,46903,94560,1,3,newark,"Newark, CA",newark-ca,/commercial-real-estate/CA/newark/,rofo,,,,,true,
Newport Beach,CA,Orange County,33.6151,-117.8668,83845,92662 92663 92660 92661 92625 92657 92658 92659,3,3,newport-beach,"Newport Beach, CA",newport-beach-ca,/commercial-real-estate/CA/newport-beach/,rofo,,,,,true,
North Hollywood,CA,,,,,,1,3,north-hollywood,"North Hollywood, CA",north-hollywood-ca,/commercial-real-estate/CA/north-hollywood/,rofo,,,,,false,
Novato,CA,Marin County,38.092,-122.5575,52546,94949 94945 94947 94998,1,3,novato,"Novato, CA",novato-ca,/commercial-real-estate/CA/novato/,rofo,,,,,true,
Oakland,CA,Alameda County,37.8044,-122.2711,439418,94621 94705 94611 94610 94613 94612 94619 94618 94606 94607 94602 94603 94601 94609 94720 94605 94608 94604 94614 94615 94617 94620 94623 94624 94649 94659 94660 94661 94666,1503,1,oakland,"Oakland, CA",oakland-ca,/commercial-real-estate/CA/oakland/,rofo,,,,,true,
Ontario,CA,San Bernardino County,34.0393,-117.6064,180547,91762 91761 91764 91743 91758,2,3,ontario,"Ontario, CA",ontario-ca,/commercial-real-estate/CA/ontario/,rofo,,,,,true,
Orange,CA,Orange County,33.8038,-117.8218,138266,92868 92869 92866 92867 92865 92856 92857 92863 92864,2,3,orange,"Orange, CA",orange-ca,/commercial-real-estate/CA/orange/,rofo,,,,,true,
Orinda,CA,Contra Costa County,37.8808,-122.179,19514,94563,0,3,orinda,"Orinda, CA",orinda-ca,/commercial-real-estate/CA/orinda/,officefinder+simplemaps,2448,TRUE,FALSE,3,true,true
Oxnard,CA,Ventura County,34.1964,-119.1815,369935,93035 93036 93030 93033 93031 93032 93034,1,3,oxnard,"Oxnard, CA",oxnard-ca,/commercial-real-estate/CA/oxnard/,rofo,,,,,true,
Palo Alto,CA,Santa Clara County,37.4419,-122.143,67237,94028 94022 94303 94301 94306 94304 94302,364,2,palo-alto,"Palo Alto, CA",palo-alto-ca,/commercial-real-estate/CA/palo-alto/,rofo,,,,,true,
Pasadena,CA,Los Angeles County,34.1478,-118.1445,136969,91103 91101 91104 91125 91106 91107 91105 91102 91109 91110 91114 91115 91116 91117 91121 91123 91124 91126 91129 91182 91184 91188 91189 91199,433,2,pasadena,"Pasadena, CA",pasadena-ca,/commercial-real-estate/CA/pasadena/,rofo,,,,,true,
Petaluma,CA,Sonoma County,38.2423,-122.6266,59247,94954 94952 94953,1,3,petaluma,"Petaluma, CA",petaluma-ca,/commercial-real-estate/CA/petaluma/,rofo,,,,,true,
Pico Rivera,CA,Los Angeles County,33.9901,-118.0888,60272,90660 90661 90662,0,3,pico-rivera,"Pico Rivera, CA",pico-rivera-ca,/commercial-real-estate/CA/pico-rivera/,officefinder+simplemaps,2142,TRUE,FALSE,2,true,true
Placerville,CA,El Dorado County,38.7308,-120.7979,10762,95667,0,3,placerville,"Placerville, CA",placerville-ca,/commercial-real-estate/CA/placerville/,officefinder+simplemaps,2515,TRUE,FALSE,3,true,true
Playa Vista,CA,Los Angeles County,33.9728,-118.4276,,90094,0,3,playa-vista,"Playa Vista, CA",playa-vista-ca,/commercial-real-estate/CA/playa-vista/,officefinder+simplemaps,2294,FALSE,FALSE,4,true,true
Pleasanton,CA,Alameda County,37.6663,-121.8805,76960,94566 94588,3,3,pleasanton,"Pleasanton, CA",pleasanton-ca,/commercial-real-estate/CA/pleasanton/,rofo,,,,,true,
Poway,CA,San Diego County,32.9871,-117.0201,48713,92064 92074,0,3,poway,"Poway, CA",poway-ca,/commercial-real-estate/CA/poway/,officefinder+simplemaps,1874,TRUE,FALSE,3,true,true
Rancho Cordova,CA,Sacramento County,38.5737,-121.2527,81849,95742 95670 95827 95741,1,3,rancho-cordova,"Rancho Cordova, CA",rancho-cordova-ca,/commercial-real-estate/CA/rancho-cordova/,rofo,,,,,true,
Rancho Santa Margarita,CA,Orange County,33.6318,-117.5988,46990,92679 92688,1,3,rancho-santa-margarita,"Rancho Santa Margarita, CA",rancho-santa-margarita-ca,/commercial-real-estate/CA/rancho-santa-margarita/,rofo,,,,,true,
Redondo Beach,CA,Los Angeles County,33.8577,-118.3765,69291,90278 90277,0,3,redondo-beach,"Redondo Beach, CA",redondo-beach-ca,/commercial-real-estate/CA/redondo-beach/,officefinder+simplemaps,2277,TRUE,FALSE,2,true,true
Redwood City,CA,San Mateo County,37.4852,-122.2364,82447,94065 94062 94063 94061,341,2,redwood-city,"Redwood City, CA",redwood-city-ca,/commercial-real-estate/CA/redwood-city/,rofo,,,,,true,
Riverside,CA,Riverside County,33.9806,-117.3755,2333040,92508 92503 92501 92506 92505 92504 92507 92521 92502 92513 92514 92516 92517 92522,751,2,riverside,"Riverside, CA",riverside-ca,/commercial-real-estate/CA/riverside/,rofo,,,,,true,
Rolling Hills,CA,Los Angeles County,33.7601,-118.3471,1509,90274,1,3,rolling-hills,"Rolling Hills, CA",rolling-hills-ca,/commercial-real-estate/CA/rolling-hills/,rofo,,,,,true,
Roseville,CA,Placer County,38.7703,-121.3196,155955,95661 95747 95678,2,3,roseville,"Roseville, CA",roseville-ca,/commercial-real-estate/CA/roseville/,rofo,,,,,true,
Sacramento,CA,Sacramento County,38.5816,-121.4944,1975489,95821 95820 95823 95838 95832 95833 95831 95834 95835 95811 95814 95815 95818 95819 95828 95822 95825 95824 95826 95816 95817 94203 94204 94205 94209 94229 94230 94232 94235 94236 94237 94239 94240 94244 94247 94248 94249 94250 94252 94254 94256 94257 94258 94259 94261 94262 94263 94267 94268 94269 94271 94273 94274 94277 94278 94279 94280 94283 94284 94285 94287 94288 94289 94290 94293 94294 94295 94296 94297 94298 94299 95812 95813 95840 95851 95852 95853 95867 95894,1107,1,sacramento,"Sacramento, CA",sacramento-ca,/commercial-real-estate/CA/sacramento/,rofo,,,,,true,
San Bernardino,CA,San Bernardino County,34.1416,-117.2943,222724,92404 92369 92401 92407 92405 92408 92411 92410 92415 92346 92403 92406 92413 92418 92423 92427,0,2,san-bernardino,"San Bernardino, CA",san-bernardino-ca,/commercial-real-estate/CA/san-bernardino/,officefinder+simplemaps,2237,TRUE,FALSE,2,true,true
San Diego,CA,San Diego County,32.7157,-117.1611,3064435,92182 92109 92108 92107 92106 92103 92101 92111 92154 92110 92140 92161 92105 92104 92102 92071 92132 92130 92131 92136 92134 92139 92025 92027 92147 92145 92014 92093 92092 92119 92116 92117 92121 92120 92123 92122 92124 92127 92126 92129 92128 92037 92173 92113 92114 92115 92038 92039 92072 92112 92137 92138 92142 92143 92149 92150 92152 92153 92158 92159 92160 92163 92165 92166 92167 92168 92169 92170 92171 92172 92174 92175 92176 92177 92186 92187 92191 92192 92193 92195 92196 92197 92198 92199,1414,1,san-diego,"San Diego, CA",san-diego-ca,/commercial-real-estate/CA/san-diego/,rofo,,,,,true,
San Francisco,CA,San Francisco County,37.7749,-122.4194,3417736,94130 94131 94132 94133 94134 94103 94102 94105 94104 94188 94158 94124 94123 94122 94121 94129 94118 94108 94107 94112 94110 94116 94117 94114 94115 94111 94109 94127 94119 94120 94125 94137 94139 94140 94141 94142 94143 94144 94145 94146 94147 94151 94159 94160 94161 94163 94164 94172 94177,2412,1,san-francisco,"San Francisco, CA",san-francisco-ca,/commercial-real-estate/CA/san-francisco/,rofo,,,,,true,
San Jose,CA,Santa Clara County,37.3382,-121.8863,1827643,95119 95118 95128 95124 95125 95122 95008 95002 95117 95116 95111 95110 95113 95112 95126 95127 95120 95123 95148 95133 95132 95131 95130 95136 95134 95139 95138 95037 95013 95129 95121 95101 95103 95106 95109 95115 95141 95150 95151 95153 95154 95155 95156 95157 95158 95159 95160 95161 95164 95172 95173 95190 95191 95192 95193 95194 95196,1705,1,san-jose,"San Jose, CA",san-jose-ca,/commercial-real-estate/CA/san-jose/,rofo,,,,,true,
San Juan Capistrano,CA,Orange County,33.5008,-117.6544,35095,92675 92693,0,3,san-juan-capistrano,"San Juan Capistrano, CA",san-juan-capistrano-ca,/commercial-real-estate/CA/san-juan-capistrano/,officefinder+simplemaps,1896,TRUE,FALSE,3,true,true
San Mateo,CA,San Mateo County,37.5522,-122.3121,103105,94404 94401 94402 94403 94497,2,3,san-mateo,"San Mateo, CA",san-mateo-ca,/commercial-real-estate/CA/san-mateo/,rofo,,,,,true,
San Pedro,CA,,,,,,1,3,san-pedro,"San Pedro, CA",san-pedro-ca,/commercial-real-estate/CA/san-pedro/,rofo,,,,,false,
San Rafael,CA,Marin County,37.9735,-122.5311,60433,94901 94903 94912 94915,421,2,san-rafael,"San Rafael, CA",san-rafael-ca,/commercial-real-estate/CA/san-rafael/,rofo,,,,,true,
San Ramon,CA,Contra Costa County,37.7624,-121.9365,85993,94582 94583,2,3,san-ramon,"San Ramon, CA",san-ramon-ca,/commercial-real-estate/CA/san-ramon/,rofo,,,,,true,
Santa Ana,CA,Orange County,33.7455,-117.8677,312534,92707 92701 92703 92705 92704 92706 92702 92735 92799,380,2,santa-ana,"Santa Ana, CA",santa-ana-ca,/commercial-real-estate/CA/santa-ana/,rofo,,,,,true,
Santa Barbara,CA,Santa Barbara County,34.4285,-119.7202,202039,93105 93101 93103 93109 93102 93120 93121 93130 93140 93190,1,3,santa-barbara,"Santa Barbara, CA",santa-barbara-ca,/commercial-real-estate/CA/santa-barbara/,rofo,,,,,true,
Santa Clara,CA,Santa Clara County,37.3646,-121.968,130256,95054 95050 95051 95053 95052 95055 95056,2,3,santa-clara,"Santa Clara, CA",santa-clara-ca,/commercial-real-estate/CA/santa-clara/,rofo,,,,,true,
Santa Cruz,CA,Santa Cruz County,36.9789,-122.0346,163368,95065 95064 95060 95062 95061 95063 95067,0,2,santa-cruz,"Santa Cruz, CA",santa-cruz-ca,/commercial-real-estate/CA/santa-cruz/,officefinder+simplemaps,232,TRUE,FALSE,2,true,true
Santa Maria,CA,Santa Barbara County,34.9333,-120.4431,144941,93454 93455 93458,0,2,santa-maria,"Santa Maria, CA",santa-maria-ca,/commercial-real-estate/CA/santa-maria/,officefinder+simplemaps,1537,TRUE,FALSE,2,true,true
Santa Monica,CA,Los Angeles County,34.0195,-118.4912,91169,90401 90402 90403 90404 90405 90406 90407 90408 90409 90410 90411,522,2,santa-monica,"Santa Monica, CA",santa-monica-ca,/commercial-real-estate/CA/santa-monica/,rofo,,,,,true,
Santa Rosa,CA,Sonoma County,38.4458,-122.7067,292251,95409 95403 95401 95407 95405 95404 95406,1,3,santa-rosa,"Santa Rosa, CA",santa-rosa-ca,/commercial-real-estate/CA/santa-rosa/,rofo,,,,,true,
Santee,CA,San Diego County,32.8554,-116.9851,59332,92071 92040,0,3,santee,"Santee, CA",santee-ca,/commercial-real-estate/CA/santee/,officefinder+simplemaps,1876,TRUE,FALSE,3,true,true
Saratoga,CA,Santa Clara County,37.2684,-122.0263,30319,95070 95071,0,3,saratoga,"Saratoga, CA",saratoga-ca,/commercial-real-estate/CA/saratoga/,officefinder+simplemaps,441,TRUE,FALSE,3,true,true
Sausalito,CA,Marin County,37.8581,-122.4933,7141,94965 94966,1,3,sausalito,"Sausalito, CA",sausalito-ca,/commercial-real-estate/CA/sausalito/,rofo,,,,,true,
Scotts Valley,CA,Santa Cruz County,37.0555,-122.0118,12044,95066,0,3,scotts-valley,"Scotts Valley, CA",scotts-valley-ca,/commercial-real-estate/CA/scotts-valley/,officefinder+simplemaps,2135,TRUE,FALSE,3,true,true
Seal Beach,CA,Orange County,33.7542,-118.0714,24722,90743 90740,0,3,seal-beach,"Seal Beach, CA",seal-beach-ca,/commercial-real-estate/CA/seal-beach/,officefinder+simplemaps,753,TRUE,FALSE,3,true,true
Sherman Oaks,CA,,,,,,1,3,sherman-oaks,"Sherman Oaks, CA",sherman-oaks-ca,/commercial-real-estate/CA/sherman-oaks/,rofo,,,,,false,
Solana Beach,CA,San Diego County,32.9943,-117.2574,12823,92075 92014,1,3,solana-beach,"Solana Beach, CA",solana-beach-ca,/commercial-real-estate/CA/solana-beach/,rofo,,,,,true,
Sonoma,CA,Sonoma County,38.2902,-122.4598,10670,95476,0,3,sonoma,"Sonoma, CA",sonoma-ca,/commercial-real-estate/CA/sonoma/,officefinder+simplemaps,2497,TRUE,FALSE,3,true,true
Stanton,CA,Orange County,33.8003,-117.9935,39402,92804 90680,0,3,stanton,"Stanton, CA",stanton-ca,/commercial-real-estate/CA/stanton/,officefinder+simplemaps,1898,TRUE,FALSE,2,true,true
Stockton,CA,San Joaquin County,37.9577,-121.2908,410053,95219 95212 95210 95211 95209 95207 95203 95205 95204 95206 95202 95201 95267 95269 95296 95297,500,2,stockton,"Stockton, CA",stockton-ca,/commercial-real-estate/CA/stockton/,rofo,,,,,true,
Sunnyvale,CA,Santa Clara County,37.3688,-122.0363,154236,94085 94086 94087 94089 94088,331,2,sunnyvale,"Sunnyvale, CA",sunnyvale-ca,/commercial-real-estate/CA/sunnyvale/,rofo,,,,,true,
Torrance,CA,Los Angeles County,33.8346,-118.3416,142130,90277 90501 90503 90505 90504 90507 90508 90509 90510,1,3,torrance,"Torrance, CA",torrance-ca,/commercial-real-estate/CA/torrance/,rofo,,,,,true,
Valencia,CA,,,,,,1,3,valencia,"Valencia, CA",valencia-ca,/commercial-real-estate/CA/valencia/,rofo,,,,,false,
Vernon,CA,Los Angeles County,34.0019,-118.2105,331,90058,0,3,vernon,"Vernon, CA",vernon-ca,/commercial-real-estate/CA/vernon/,officefinder+simplemaps,2621,TRUE,FALSE,3,true,true
Walnut Creek,CA,Contra Costa County,37.9101,-122.0652,70088,94597 94598 94596 94595,392,2,walnut-creek,"Walnut Creek, CA",walnut-creek-ca,/commercial-real-estate/CA/walnut-creek/,rofo,,,,,true,
West Covina,CA,Los Angeles County,34.0555,-117.9113,107037,91792 91791 91790 91793,1,3,west-covina,"West Covina, CA",west-covina-ca,/commercial-real-estate/CA/west-covina/,rofo,,,,,true,
West Hollywood,CA,Los Angeles County,34.0883,-118.3719,34884,90069 90046 90048,0,3,west-hollywood,"West Hollywood, CA",west-hollywood-ca,/commercial-real-estate/CA/west-hollywood/,officefinder+simplemaps,2295,TRUE,FALSE,2,true,true
Westlake Village,CA,Los Angeles County,34.1369,-118.822,7743,91361 91362,2,3,westlake-village,"Westlake Village, CA",westlake-village-ca,/commercial-real-estate/CA/westlake-village/,rofo,,,,,true,
Westminster,CA,Orange County,33.7523,-117.9938,89860,92655 92683 92684 92685,0,3,westminster,"Westminster, CA",westminster-ca,/commercial-real-estate/CA/westminster/,officefinder+simplemaps,1899,TRUE,FALSE,2,true,true
Wildomar,CA,Riverside County,33.6173,-117.2582,37277,92595,0,3,wildomar,"Wildomar, CA",wildomar-ca,/commercial-real-estate/CA/wildomar/,officefinder+simplemaps,2639,TRUE,FALSE,3,true,true
Woodland Hills,CA,,,,,,3,3,woodland-hills,"Woodland Hills, CA",woodland-hills-ca,/commercial-real-estate/CA/woodland-hills/,rofo,,,,,false,
Aurora,CO,Arapahoe County,39.7083,-104.7237,394432,80247 80137 80045 80018 80019 80016 80014 80015 80012 80013 80010 80017 80011 80040 80041 80042 80044 80046 80047,3,3,aurora,"Aurora, CO",aurora-co,/commercial-real-estate/CO/aurora/,rofo,,,,,true,
Basalt,CO,Eagle County,39.3663,-107.0413,4335,81621,1,3,basalt,"Basalt, CO",basalt-co,/commercial-real-estate/CO/basalt/,rofo,,,,,true,
Boulder,CO,Boulder County,40.015,-105.2705,120289,80310 80304 80305 80302 80303 80301 80307 80309 80314,251,2,boulder,"Boulder, CO",boulder-co,/commercial-real-estate/CO/boulder/,rofo,,,,,true,
Broomfield,CO,Broomfield County,39.9542,-105.0526,76304,80023 80021 80020 80516 80038,2,3,broomfield,"Broomfield, CO",broomfield-co,/commercial-real-estate/CO/broomfield/,rofo,,,,,true,
Centennial,CO,Arapahoe County,39.5926,-104.8673,108201,80122 80121 80016 80015 80112 80111 80155 80161,1,3,centennial,"Centennial, CO",centennial-co,/commercial-real-estate/CO/centennial/,rofo,,,,,true,
Colorado Springs,CO,El Paso County,38.8339,-104.8214,643336,80951 80829 80909 80904 80905 80906 80907 80903 80939 80938 80910 80917 80916 80915 80914 80919 80918 80927 80924 80925 80922 80923 80920 80921 80929 80901 80932 80934 80935 80936 80937 80941 80942 80946 80947 80949 80950 80960 80962 80977 80995 80997,705,2,colorado-springs,"Colorado Springs, CO",colorado-springs-co,/commercial-real-estate/CO/colorado-springs/,rofo,,,,,true,
Denver,CO,Denver County,39.7392,-104.9903,2714768,80264 80266 80230 80231 80236 80237 80235 80238 80239 80123 80249 80247 80246 80290 80293 80294 80218 80210 80212 80216 80221 80220 80223 80222 80224 80227 80219 80211 80209 80207 80206 80205 80204 80202 80203 80208 80217 80243 80248 80250 80256 80257 80259 80261 80265 80271 80273 80274 80281 80291 80299,1213,1,denver,"Denver, CO",denver-co,/commercial-real-estate/CO/denver/,rofo,,,,,true,
Englewood,CO,Arapahoe County,39.6468,-104.9942,34129,80113 80110 80150 80151,2,3,englewood,"Englewood, CO",englewood-co,/commercial-real-estate/CO/englewood/,rofo,,,,,true,
Firestone,CO,Weld County,40.1565,-104.9494,18049,80520 80504,0,3,firestone,"Firestone, CO",firestone-co,/commercial-real-estate/CO/firestone/,officefinder+simplemaps,1013,TRUE,FALSE,3,true,true
Fort Collins,CO,Larimer County,40.5477,-105.0656,336364,80528 80521 80526 80524 80525 80523 80527 80553,1,3,fort-collins,"Fort Collins, CO",fort-collins-co,/commercial-real-estate/CO/fort-collins/,rofo,,,,,true,
Frederick,CO,Weld County,40.1088,-104.9701,16651,80504 80530 80516 80514,0,3,frederick,"Frederick, CO",frederick-co,/commercial-real-estate/CO/frederick/,officefinder+simplemaps,1012,TRUE,FALSE,3,true,true
Glendale,CO,Arapahoe County,39.7036,-104.9352,4531,80246,0,3,glendale,"Glendale, CO",glendale-co,/commercial-real-estate/CO/glendale/,officefinder+simplemaps,1000,TRUE,FALSE,2,true,true
Golden,CO,Jefferson County,39.7406,-105.2118,20417,80401 80403 80419,0,3,golden,"Golden, CO",golden-co,/commercial-real-estate/CO/golden/,officefinder+simplemaps,1040,TRUE,FALSE,3,true,true
Greenwood Village,CO,Arapahoe County,39.6153,-104.9131,15420,80121 80111,2,3,greenwood-village,"Greenwood Village, CO",greenwood-village-co,/commercial-real-estate/CO/greenwood-village/,rofo,,,,,true,
Lafayette,CO,Boulder County,39.9946,-105.0998,99552,80026,0,3,lafayette,"Lafayette, CO",lafayette-co,/commercial-real-estate/CO/lafayette/,officefinder+simplemaps,1017,TRUE,FALSE,3,true,true
Lakewood,CO,Jefferson County,39.6977,-105.1172,156583,80232 80235 80214 80215 80227 80226 80228 80201 80225,1,3,lakewood,"Lakewood, CO",lakewood-co,/commercial-real-estate/CO/lakewood/,rofo,,,,,true,
Littleton,CO,Arapahoe County,39.5915,-105.0188,44710,80128 80122 80123 80120 80160 80165 80166,2,3,littleton,"Littleton, CO",littleton-co,/commercial-real-estate/CO/littleton/,rofo,,,,,true,
Lone Tree,CO,Douglas County,39.5309,-104.8709,14147,80124 80134,0,3,lone-tree,"Lone Tree, CO",lone-tree-co,/commercial-real-estate/CO/lone-tree/,officefinder+simplemaps,1004,TRUE,FALSE,3,true,true
Louisville,CO,Boulder County,39.971,-105.1441,20786,80027,0,3,louisville,"Louisville, CO",louisville-co,/commercial-real-estate/CO/louisville/,officefinder+simplemaps,1016,TRUE,FALSE,3,true,true
Northglenn,CO,Adams County,39.9108,-104.9783,38014,80260 80233 80234 80603,0,3,northglenn,"Northglenn, CO",northglenn-co,/commercial-real-estate/CO/northglenn/,officefinder+simplemaps,1031,TRUE,FALSE,3,true,true
Parker,CO,Douglas County,39.5084,-104.7753,61783,80138 80134,1,3,parker,"Parker, CO",parker-co,/commercial-real-estate/CO/parker/,rofo,,,,,true,
Thornton,CO,Adams County,39.9197,-104.9438,144187,80260 80233 80241 80640 80023 80229 80602 80614,0,2,thornton,"Thornton, CO",thornton-co,/commercial-real-estate/CO/thornton/,officefinder+simplemaps,1030,TRUE,FALSE,2,true,true
Ansonia,CT,Naugatuck Valley County,41.3443,-73.0689,19033,06401,0,3,ansonia,"Ansonia, CT",ansonia-ct,/commercial-real-estate/CT/ansonia/,officefinder+simplemaps,1378,TRUE,FALSE,3,true,true
Avon,CT,Capitol County,41.7907,-72.8538,,06001,0,3,avon,"Avon, CT",avon-ct,/commercial-real-estate/CT/avon/,officefinder+simplemaps,2581,FALSE,FALSE,3,true,true
Berlin,CT,Capitol County,41.6114,-72.7758,,06037,1,3,berlin,"Berlin, CT",berlin-ct,/commercial-real-estate/CT/berlin/,rofo,,,,,true,
Bethel,CT,Western Connecticut County,41.3747,-73.3928,,06801,0,3,bethel,"Bethel, CT",bethel-ct,/commercial-real-estate/CT/bethel/,officefinder+simplemaps,1379,FALSE,FALSE,3,true,true
Bloomfield,CT,Capitol County,41.8426,-72.7406,,06002,0,3,bloomfield,"Bloomfield, CT",bloomfield-ct,/commercial-real-estate/CT/bloomfield/,officefinder+simplemaps,2574,FALSE,FALSE,3,true,true
Branford,CT,South Central Connecticut County,41.2843,-72.7979,,06405,0,3,branford,"Branford, CT",branford-ct,/commercial-real-estate/CT/branford/,officefinder+simplemaps,1382,FALSE,FALSE,3,true,true
Bridgeport,CT,Fairfield County,41.1792,-73.1894,945974,06605 06604 06607 06606 06608 06610 06601 06602,351,2,bridgeport,"Bridgeport, CT",bridgeport-ct,/commercial-real-estate/CT/bridgeport/,rofo,,,,,true,
Bristol,CT,Naugatuck Valley County,41.6812,-72.9407,61462,06010 06011,0,3,bristol,"Bristol, CT",bristol-ct,/commercial-real-estate/CT/bristol/,officefinder+simplemaps,2583,TRUE,FALSE,3,true,true
Cheshire,CT,Naugatuck Valley County,41.5113,-72.9036,,06410,0,3,cheshire,"Cheshire, CT",cheshire-ct,/commercial-real-estate/CT/cheshire/,officefinder+simplemaps,2054,FALSE,FALSE,3,true,true
Cromwell,CT,Lower Connecticut River Valley County,41.6122,-72.6638,,06416,0,3,cromwell,"Cromwell, CT",cromwell-ct,/commercial-real-estate/CT/cromwell/,officefinder+simplemaps,2183,FALSE,FALSE,3,true,true
Danbury,CT,Western Connecticut County,41.4015,-73.4709,174548,06810 06811 06813,1,3,danbury,"Danbury, CT",danbury-ct,/commercial-real-estate/CT/danbury/,rofo,,,,,true,
East Berlin,CT,Capitol County,41.6184,-72.7137,,06023,0,3,east-berlin,"East Berlin, CT",east-berlin-ct,/commercial-real-estate/CT/east-berlin/,officefinder+simplemaps,2329,FALSE,FALSE,4,true,true
Fairfield,CT,Greater Bridgeport County,41.1775,-73.2733,,06824,0,3,fairfield,"Fairfield, CT",fairfield-ct,/commercial-real-estate/CT/fairfield/,officefinder+simplemaps,2384,FALSE,FALSE,3,true,true
Glastonbury,CT,Capitol County,41.6921,-72.5472,,06033,0,3,glastonbury,"Glastonbury, CT",glastonbury-ct,/commercial-real-estate/CT/glastonbury/,officefinder+simplemaps,2580,FALSE,FALSE,3,true,true
Greenwich,CT,Western Connecticut County,41.0665,-73.6368,,06830,1,3,greenwich,"Greenwich, CT",greenwich-ct,/commercial-real-estate/CT/greenwich/,rofo,,,,,true,
Groton,CT,Southeastern Connecticut County,41.3598,-72.0293,,06340,0,3,groton,"Groton, CT",groton-ct,/commercial-real-estate/CT/groton/,officefinder+simplemaps,2383,FALSE,FALSE,4,true,true
Hamden,CT,South Central Connecticut County,41.3961,-72.9215,,06514,0,3,hamden,"Hamden, CT",hamden-ct,/commercial-real-estate/CT/hamden/,officefinder+simplemaps,2493,FALSE,FALSE,3,true,true
Hartford,CT,Capitol County,41.7661,-72.6834,990793,06106 06105 06103 06120 06112 06114 06101 06102 06104 06115 06123 06126 06127 06132 06133 06134 06140 06141 06142 06143 06144 06145 06146 06147 06150 06151 06152 06154 06160 06167 06176 06183,1,3,hartford,"Hartford, CT",hartford-ct,/commercial-real-estate/CT/hartford/,rofo,,,,,true,
Middletown,CT,Lower Connecticut River Valley County,41.5476,-72.6549,47958,06457 06459,1,3,middletown,"Middletown, CT",middletown-ct,/commercial-real-estate/CT/middletown/,rofo,,,,,true,
Milford,CT,South Central Connecticut County,41.2256,-73.0616,,06460,0,3,milford,"Milford, CT",milford-ct,/commercial-real-estate/CT/milford/,officefinder+simplemaps,2494,TRUE,FALSE,3,true,true
New Britain,CT,Capitol County,41.6759,-72.7862,74223,06052 06053 06051 06050,0,3,new-britain,"New Britain, CT",new-britain-ct,/commercial-real-estate/CT/new-britain/,officefinder+simplemaps,2577,TRUE,FALSE,2,true,true
New Haven,CT,New Haven County,41.3083,-72.9279,567250,06519 06511 06510 06513 06512 06515 06501 06502 06503 06505 06506 06507 06508 06509 06520 06521 06530 06531 06532 06533 06534 06535 06536 06540,401,2,new-haven,"New Haven, CT",new-haven-ct,/commercial-real-estate/CT/new-haven/,rofo,,,,,true,
New London,CT,Southeastern Connecticut County,41.3502,-72.1022,27625,06320,0,3,new-london,"New London, CT",new-london-ct,/commercial-real-estate/CT/new-london/,officefinder+simplemaps,173,TRUE,FALSE,3,true,true
Newington,CT,Capitol County,41.687,-72.7308,,06111,0,3,newington,"Newington, CT",newington-ct,/commercial-real-estate/CT/newington/,officefinder+simplemaps,2055,FALSE,FALSE,3,true,true
Norwalk,CT,Western Connecticut County,41.1144,-73.4215,92187,06854 06855 06850 06851 06853 06852 06856 06857 06858,1,3,norwalk,"Norwalk, CT",norwalk-ct,/commercial-real-estate/CT/norwalk/,rofo,,,,,true,
Old Saybrook,CT,Lower Connecticut River Valley County,41.3017,-72.3857,,06475,0,3,old-saybrook,"Old Saybrook, CT",old-saybrook-ct,/commercial-real-estate/CT/old-saybrook/,officefinder+simplemaps,2579,FALSE,FALSE,4,true,true
Rocky Hill,CT,Capitol County,41.6572,-72.6632,,06067,1,3,rocky-hill,"Rocky Hill, CT",rocky-hill-ct,/commercial-real-estate/CT/rocky-hill/,rofo,,,,,true,
Shelton,CT,Naugatuck Valley County,41.306,-73.1383,41889,06484,1,3,shelton,"Shelton, CT",shelton-ct,/commercial-real-estate/CT/shelton/,rofo,,,,,true,
Somers,CT,Capitol County,41.9949,-72.453,,06071,0,3,somers,"Somers, CT",somers-ct,/commercial-real-estate/CT/somers/,officefinder+simplemaps,2578,FALSE,FALSE,3,true,true
Stamford,CT,Fairfield County,41.0534,-73.5387,137144,06906 06907 06905 06902 06903 06901 06904 06910 06911 06912 06913 06914 06926 06927,452,2,stamford,"Stamford, CT",stamford-ct,/commercial-real-estate/CT/stamford/,rofo,,,,,true,
Waterbury,CT,Naugatuck Valley County,41.5582,-73.0361,202514,06708 06702 06704 06705 06706 06710 06701 06703 06720 06721 06722 06723 06724 06725 06726,0,2,waterbury,"Waterbury, CT",waterbury-ct,/commercial-real-estate/CT/waterbury/,officefinder+simplemaps,625,TRUE,FALSE,2,true,true
West Hartford,CT,Capitol County,41.7669,-72.7536,,06107,2,3,west-hartford,"West Hartford, CT",west-hartford-ct,/commercial-real-estate/CT/west-hartford/,rofo,,,,,true,
Westport,CT,Western Connecticut County,41.1428,-73.3475,,06880,1,3,westport,"Westport, CT",westport-ct,/commercial-real-estate/CT/westport/,rofo,,,,,true,
Wilton,CT,Western Connecticut County,41.207,-73.4401,,06897,1,3,wilton,"Wilton, CT",wilton-ct,/commercial-real-estate/CT/wilton/,rofo,,,,,true,
Windsor,CT,Capitol County,41.871,-72.6736,,06095,1,3,windsor,"Windsor, CT",windsor-ct,/commercial-real-estate/CT/windsor/,rofo,,,,,true,
Washington,DC,District Of Columbia County,38.9072,-77.0369,5230370,20250 20010 20011 20012 20015 20520 20418 20415 20020 20024 20510 20515 20427 20422 20530 20542 20540 20240 20245 20204 20005 20004 20003 20002 20001 20009 20008 20317 20319 20390 20059 20057 20052 20388 20017 20018 20565 20566 20560 20591 20220 20064 20551 20230 20373 20260 20007 20006 20032 20036 20037 20431 20045 20408 20535 20016 20019 20013 20022 20026 20027 20029 20030 20033 20035 20038 20039 20040 20042 20043 20044 20047 20049 20050 20053 20055 20056 20058 20060 20061 20062 20063 20065 20066 20067 20068 20069 20070 20071 20073 20074 20075 20076 20077 20078 20080 20081 20082 20090 20091 20201 20202 20203 20206 20207 20208 20210 20211 20212 20213 20214 20215 20216 20217 20218 20219 20221 20222 20223 20224 20226 20227 20228 20229 20232 20233 20235 20237 20238 20239 20241 20242 20244 20251 20252 20254 20261 20262 20265 20266 20268 20270 20277 20289 20299 20301 20303 20306 20310 20314 20318 20330 20340 20350 20355 20370 20372 20374 20375 20376 20380 20389 20391 20392 20393 20394 20395 20398 20401 20402 20403 20404 20405 20406 20407 20410 20411 20412 20413 20414 20416 20417 20419 20420 20421 20423 20424 20425 20426 20428 20429 20433 20434 20435 20436 20437 20439 20440 20441 20442 20444 20447 20451 20453 20456 20460 20463 20468 20469 20470 20472 20500 20501 20502 20503 20504 20505 20506 20507 20508 20509 20511 20521 20522 20523 20524 20525 20526 20527 20528 20529 20531 20533 20534 20536 20537 20538 20539 20541 20543 20544 20546 20547 20548 20549 20552 20553 20554 20555 20557 20559 20570 20571 20572 20573 20575 20576 20577 20578 20579 20580 20581 20585 20586 20590 20593 20594 20597 20599 56901 56902 56904 56908 56915 56920 56933 56935 56944 56945 56950 56965 56967 56972 56998 56999,1311,1,washington,"Washington, DC",washington-dc,/commercial-real-estate/DC/washington/,rofo,,,,,true,
Dover,DE,Kent County,39.1582,-75.5244,131461,19902 19901 19904 19905 19906,180,3,dover,"Dover, DE",dover-de,/commercial-real-estate/DE/dover/,rofo,,,,,true,
Montchanin,DE,New Castle County,39.7898,-75.5891,,19710,0,3,montchanin,"Montchanin, DE",montchanin-de,/commercial-real-estate/DE/montchanin/,officefinder+simplemaps,1461,FALSE,FALSE,4,true,true
Newark,DE,New Castle County,39.6776,-75.7576,30330,19713 19711 19717 19716 19715 19725 19726,1,3,newark,"Newark, DE",newark-de,/commercial-real-estate/DE/newark/,rofo,,,,,true,
Newport,DE,New Castle County,39.7135,-75.6046,900,19804,0,3,newport,"Newport, DE",newport-de,/commercial-real-estate/DE/newport/,officefinder+simplemaps,1460,TRUE,FALSE,3,true,true
Wilmington,DE,New Castle County,39.7447,-75.5484,71727,19802 19801 19806 19805 19809 19850 19880 19884 19885 19886 19890 19893 19894 19895 19896 19898 19899,301,2,wilmington,"Wilmington, DE",wilmington-de,/commercial-real-estate/DE/wilmington/,rofo,,,,,true,
Aventura,FL,Miami-dade County,25.9566,-80.1371,39885,33160 33180 33163,0,3,aventura,"Aventura, FL",aventura-fl,/commercial-real-estate/FL/aventura/,officefinder+simplemaps,18,TRUE,FALSE,2,true,true
Bluffton,FL,Volusia County,29.1264,-81.5017,,32102,0,3,bluffton,"Bluffton, FL",bluffton-fl,/commercial-real-estate/FL/bluffton/,officefinder+simplemaps,2450,FALSE,FALSE,5,true,true
Boca Raton,FL,Palm Beach County,26.3752,-80.108,100234,33496 33487 33486 33434 33432 33433 33431 33427 33429 33481 33499,2,3,boca-raton,"Boca Raton, FL",boca-raton-fl,/commercial-real-estate/FL/boca-raton/,rofo,,,,,true,
Boynton Beach,FL,Palm Beach County,26.5281,-80.0811,81435,33426 33436 33435 33474,0,3,boynton-beach,"Boynton Beach, FL",boynton-beach-fl,/commercial-real-estate/FL/boynton-beach/,officefinder+simplemaps,2534,TRUE,FALSE,3,true,true
Casselberry,FL,Seminole County,28.6624,-81.3217,30135,32707 32718,0,3,casselberry,"Casselberry, FL",casselberry-fl,/commercial-real-estate/FL/casselberry/,officefinder+simplemaps,1662,TRUE,FALSE,3,true,true
Clearwater,FL,Pinellas County,27.979,-82.7623,117247,33759 33755 33756 33763 33761 33767 33764 33765 33757 33758 33766 33769,1,3,clearwater,"Clearwater, FL",clearwater-fl,/commercial-real-estate/FL/clearwater/,rofo,,,,,true,
Coconut Creek,FL,Broward County,26.2803,-80.1842,58330,33073 33063 33066,0,3,coconut-creek,"Coconut Creek, FL",coconut-creek-fl,/commercial-real-estate/FL/coconut-creek/,officefinder+simplemaps,2491,TRUE,FALSE,3,true,true
Cooper City,FL,Broward County,26.0463,-80.2862,34660,33024 33026 33330 33328,0,3,cooper-city,"Cooper City, FL",cooper-city-fl,/commercial-real-estate/FL/cooper-city/,officefinder+simplemaps,1596,TRUE,FALSE,3,true,true
Coral Gables,FL,Miami-dade County,25.7037,-80.2715,49802,33146 33143 33134 33158 33156 33114 33206 33234,2,3,coral-gables,"Coral Gables, FL",coral-gables-fl,/commercial-real-estate/FL/coral-gables/,rofo,,,,,true,
Coral Springs,FL,Broward County,26.2702,-80.2591,136103,33071 33076 33065 33067 33075 33077,1,3,coral-springs,"Coral Springs, FL",coral-springs-fl,/commercial-real-estate/FL/coral-springs/,rofo,,,,,true,
Cypress Creek,FL,Hamilton County,30.5736,-82.794,,31631,0,3,cypress-creek,"Cypress Creek, FL",cypress-creek-fl,/commercial-real-estate/FL/cypress-creek/,officefinder+simplemaps,1976,FALSE,FALSE,5,true,true
Dania Beach,FL,Broward County,26.0593,-80.1637,32180,33004 33312,0,3,dania-beach,"Dania Beach, FL",dania-beach-fl,/commercial-real-estate/FL/dania-beach/,officefinder+simplemaps,1605,TRUE,FALSE,3,true,true
Davie,FL,Broward County,26.0789,-80.287,108346,33324 33325 33331 33330 33328 33314 33355,0,2,davie,"Davie, FL",davie-fl,/commercial-real-estate/FL/davie/,officefinder+simplemaps,1597,TRUE,FALSE,2,true,true
Delray Beach,FL,Palm Beach County,26.455,-80.0905,67979,33445 33444 33483 33448 33482,1,3,delray-beach,"Delray Beach, FL",delray-beach-fl,/commercial-real-estate/FL/delray-beach/,rofo,,,,,true,
Doral,FL,Miami-dade County,25.8152,-80.3565,79216,33178 33172 33122 33126 33166 33191,0,3,doral,"Doral, FL",doral-fl,/commercial-real-estate/FL/doral/,officefinder+simplemaps,1151,TRUE,FALSE,2,true,true
Fort Lauderdale,FL,Broward County,26.1224,-80.1373,185604,33301 33304 33305 33306 33308 33309 33334 33316 33315 33312 33311 33320 33338 33339 33340 33346 33348 33394,434,2,fort-lauderdale,"Fort Lauderdale, FL",fort-lauderdale-fl,/commercial-real-estate/FL/fort-lauderdale/,rofo,,,,,true,
Fort Pierce,FL,St. Lucie County,27.4255,-80.3431,49082,34949 34947 34982 34981 34950 34948 34954 34979,1,3,fort-pierce,"Fort Pierce, FL",fort-pierce-fl,/commercial-real-estate/FL/fort-pierce/,rofo,,,,,true,
Hollywood,FL,Broward County,26.0293,-80.1679,155082,33024 33021 33023 33022 33020 33004 33316 33312 33019 33081 33082 33302,1,3,hollywood,"Hollywood, FL",hollywood-fl,/commercial-real-estate/FL/hollywood/,rofo,,,,,true,
Jacksonville,FL,Duval County,30.3322,-81.6557,1335714,32224 32225 32226 32227 32220 32221 32222 32223 32228 32219 32218 32214 32217 32216 32211 32210 32212 32246 32244 32233 32234 32202 32250 32254 32257 32256 32208 32209 32206 32207 32204 32205 32203 32258 32277 32099 32201 32229 32231 32232 32235 32236 32238 32239 32241 32245 32247 32255,958,2,jacksonville,"Jacksonville, FL",jacksonville-fl,/commercial-real-estate/FL/jacksonville/,rofo,,,,,true,
Jupiter,FL,Palm Beach County,26.92,-80.1128,61883,33477 33458 33468,1,3,jupiter,"Jupiter, FL",jupiter-fl,/commercial-real-estate/FL/jupiter/,rofo,,,,,true,
Lake Mary,FL,Seminole County,28.7592,-81.336,16860,32746 32795,1,3,lake-mary,"Lake Mary, FL",lake-mary-fl,/commercial-real-estate/FL/lake-mary/,rofo,,,,,true,
Lauderdale Lakes,FL,Broward County,26.1682,-80.2017,36404,33309 33313 33311 33319,0,3,lauderdale-lakes,"Lauderdale Lakes, FL",lauderdale-lakes-fl,/commercial-real-estate/FL/lauderdale-lakes/,officefinder+simplemaps,1601,TRUE,FALSE,2,true,true
Lauderhill,FL,Broward County,26.1605,-80.2241,74896,33351 33313 33311 33319 33083,0,3,lauderhill,"Lauderhill, FL",lauderhill-fl,/commercial-real-estate/FL/lauderhill/,officefinder+simplemaps,1602,TRUE,FALSE,2,true,true
Lighthouse Point,FL,Broward County,26.2785,-80.0891,10600,33064,0,3,lighthouse-point,"Lighthouse Point, FL",lighthouse-point-fl,/commercial-real-estate/FL/lighthouse-point/,officefinder+simplemaps,1600,TRUE,FALSE,3,true,true
Longwood,FL,Seminole County,28.7014,-81.3487,16337,32750,0,3,longwood,"Longwood, FL",longwood-fl,/commercial-real-estate/FL/longwood/,officefinder+simplemaps,1670,TRUE,FALSE,3,true,true
Maitland,FL,Orange County,28.6295,-81.3718,19469,32751 32794 32799,1,3,maitland,"Maitland, FL",maitland-fl,/commercial-real-estate/FL/maitland/,rofo,,,,,true,
Margate,FL,Broward County,26.2466,-80.2119,59198,33068 33063 33093,0,3,margate,"Margate, FL",margate-fl,/commercial-real-estate/FL/margate/,officefinder+simplemaps,1599,TRUE,FALSE,2,true,true
Miami,FL,Miami-dade County,25.7617,-80.1918,6391670,33128 33129 33125 33126 33127 33149 33144 33145 33142 33139 33138 33137 33136 33135 33134 33133 33132 33131 33130 33150 33101 33109 33192 33195 33222 33231 33233 33238 33255 33299,1123,1,miami,"Miami, FL",miami-fl,/commercial-real-estate/FL/miami/,rofo,,,,,true,
Miami Beach,FL,Miami-dade County,25.8171,-80.1396,82031,33140 33141 33139 33109 33119 33239,1,3,miami-beach,"Miami Beach, FL",miami-beach-fl,/commercial-real-estate/FL/miami-beach/,rofo,,,,,true,
Miami Gardens,FL,Miami-dade County,25.9433,-80.2426,113177,33014 33169 33055 33056 33054 33269,0,2,miami-gardens,"Miami Gardens, FL",miami-gardens-fl,/commercial-real-estate/FL/miami-gardens/,officefinder+simplemaps,1607,TRUE,FALSE,2,true,true
Miami Lakes,FL,Miami-dade County,25.9125,-80.3214,31553,33014 33016 33018 33002,1,3,miami-lakes,"Miami Lakes, FL",miami-lakes-fl,/commercial-real-estate/FL/miami-lakes/,rofo,,,,,true,
Miramar,FL,Broward County,25.9773,-80.3351,138600,33029 33025 33023 33027,1,3,miramar,"Miramar, FL",miramar-fl,/commercial-real-estate/FL/miramar/,rofo,,,,,true,
Miramar Beach,FL,Walton County,30.3854,-86.3442,8902,32550,2,3,miramar-beach,"Miramar Beach, FL",miramar-beach-fl,/commercial-real-estate/FL/miramar-beach/,rofo,,,,,true,
Naples,FL,Collier County,26.1504,-81.7936,19704,34103 34102 34101 34105 34104 34106,2,3,naples,"Naples, FL",naples-fl,/commercial-real-estate/FL/naples/,rofo,,,,,true,
North Miami Beach,FL,Miami-dade County,25.9302,-80.1659,43898,33162 33160 33280,1,3,north-miami-beach,"North Miami Beach, FL",north-miami-beach-fl,/commercial-real-estate/FL/north-miami-beach/,rofo,,,,,true,
Oakland Park,FL,Broward County,26.178,-80.1528,44682,33306 33309 33334 33310 33335,0,3,oakland-park,"Oakland Park, FL",oakland-park-fl,/commercial-real-estate/FL/oakland-park/,officefinder+simplemaps,1604,TRUE,FALSE,2,true,true
Ocoee,FL,Orange County,28.5796,-81.5332,49033,34761,0,3,ocoee,"Ocoee, FL",ocoee-fl,/commercial-real-estate/FL/ocoee/,officefinder+simplemaps,1669,TRUE,FALSE,3,true,true
Orlando,FL,Orange County,28.5383,-81.3792,1948155,32829 32827 32824 32822 32804 32805 32806 32807 32801 32803 32808 32839 32835 32832 32819 32811 32812 32814 32802 32853 32854 32856 32861 32862 32872 32877 32885 32886 32891 32897,660,1,orlando,"Orlando, FL",orlando-fl,/commercial-real-estate/FL/orlando/,rofo,,,,,true,
Oviedo,FL,Seminole County,28.658,-81.1872,40599,32765 32766 32762,0,3,oviedo,"Oviedo, FL",oviedo-fl,/commercial-real-estate/FL/oviedo/,officefinder+simplemaps,1665,TRUE,FALSE,3,true,true
Palm Beach,FL,Palm Beach County,26.6945,-80.0408,9348,33480,0,3,palm-beach,"Palm Beach, FL",palm-beach-fl,/commercial-real-estate/FL/palm-beach/,officefinder+simplemaps,2159,TRUE,FALSE,3,true,true
Palm Beach Gardens,FL,Palm Beach County,26.8466,-80.1679,60959,33418 33410 33412 33403,1,3,palm-beach-gardens,"Palm Beach Gardens, FL",palm-beach-gardens-fl,/commercial-real-estate/FL/palm-beach-gardens/,rofo,,,,,true,
Pembroke Pines,FL,Broward County,26.0128,-80.3382,173194,33029 33028 33025 33024 33026 33023 33027 33084,0,2,pembroke-pines,"Pembroke Pines, FL",pembroke-pines-fl,/commercial-real-estate/FL/pembroke-pines/,officefinder+simplemaps,201,TRUE,FALSE,2,true,true
Pinellas Park,FL,Pinellas County,27.8589,-82.7078,53560,33781 33782 33762 33760 33773 33780,0,3,pinellas-park,"Pinellas Park, FL",pinellas-park-fl,/commercial-real-estate/FL/pinellas-park/,officefinder+simplemaps,1570,TRUE,FALSE,3,true,true
Plantation,FL,Broward County,26.1259,-80.2617,96293,33322 33323 33324 33325 33317 33313 33388 33318 33329,2,3,plantation,"Plantation, FL",plantation-fl,/commercial-real-estate/FL/plantation/,rofo,,,,,true,
Ponte Vedra,FL,St. Johns County,30.2275,-81.3801,,32082,0,3,ponte-vedra,"Ponte Vedra, FL",ponte-vedra-fl,/commercial-real-estate/FL/ponte-vedra/,officefinder+simplemaps,2620,FALSE,FALSE,4,true,true
Safety Harbor,FL,Pinellas County,28.008,-82.6964,17033,34695,0,3,safety-harbor,"Safety Harbor, FL",safety-harbor-fl,/commercial-real-estate/FL/safety-harbor/,officefinder+simplemaps,2551,TRUE,FALSE,3,true,true
Saint Augustine,FL,,,,,,1,3,saint-augustine,"Saint Augustine, FL",saint-augustine-fl,/commercial-real-estate/FL/saint-augustine/,rofo,,,,,false,
Saint Petersburg,FL,,,,,,2,3,saint-petersburg,"Saint Petersburg, FL",saint-petersburg-fl,/commercial-real-estate/FL/saint-petersburg/,rofo,,,,,false,
Sarasota,FL,Sarasota County,27.3387,-82.5432,56970,34232 34234 34237 34236 34239 34276,1,3,sarasota,"Sarasota, FL",sarasota-fl,/commercial-real-estate/FL/sarasota/,rofo,,,,,true,
Seminole,FL,Pinellas County,27.8435,-82.784,19396,33777 33772 33778 33775,0,3,seminole,"Seminole, FL",seminole-fl,/commercial-real-estate/FL/seminole/,officefinder+simplemaps,1573,TRUE,FALSE,3,true,true
St. Petersburg,FL,Pinellas County,27.7676,-82.6403,262732,33707 33702 33762 33713 33712 33711 33710 33716 33715 33714 33705 33703 33704 33701 33729 33731 33732 33733 33734 33742 33743 33747,500,2,st-petersburg,"St. Petersburg, FL",st-petersburg-fl,/commercial-real-estate/FL/st-petersburg/,rofo,,,,,true,
Sunny Isles Beach,FL,Miami-dade County,25.9385,-80.1246,22437,33160,0,3,sunny-isles-beach,"Sunny Isles Beach, FL",sunny-isles-beach-fl,/commercial-real-estate/FL/sunny-isles-beach/,officefinder+simplemaps,2414,TRUE,FALSE,2,true,true
Sunrise,FL,Broward County,26.1547,-80.2997,97918,33322 33323 33326 33325 33351 33313 33307 33345,1,3,sunrise,"Sunrise, FL",sunrise-fl,/commercial-real-estate/FL/sunrise/,rofo,,,,,true,
Tallahassee,FL,Leon County,30.4551,-84.2527,260687,32310 32312 32313 32317 32399 32307 32306 32304 32303 32301 32309 32308 32311 32302 32314 32315 32316,2,3,tallahassee,"Tallahassee, FL",tallahassee-fl,/commercial-real-estate/FL/tallahassee/,rofo,,,,,true,
Tamarac,FL,Broward County,26.2056,-80.2539,73019,33321 33319 33359,0,3,tamarac,"Tamarac, FL",tamarac-fl,/commercial-real-estate/FL/tamarac/,officefinder+simplemaps,1603,TRUE,FALSE,2,true,true
Tampa,FL,Hillsborough County,27.9506,-82.4572,2957531,33637 33629 33621 33620 33609 33604 33606 33602 33619 33616 33613 33617 33614 33610 33611 33612 33605 33607 33603 33647 33608 33622 33623 33630 33631 33633 33646 33650 33655 33664 33672 33673 33674 33677 33679 33681 33684 33686 33689,688,1,tampa,"Tampa, FL",tampa-fl,/commercial-real-estate/FL/tampa/,rofo,,,,,true,
Temple Terrace,FL,Hillsborough County,28.0436,-82.3773,27275,33637 33617 33687,0,3,temple-terrace,"Temple Terrace, FL",temple-terrace-fl,/commercial-real-estate/FL/temple-terrace/,officefinder+simplemaps,1576,TRUE,FALSE,3,true,true
Vero Beach,FL,Indian River County,27.6463,-80.393,17042,32963 32960 32961 32964 32965 32969,1,3,vero-beach,"Vero Beach, FL",vero-beach-fl,/commercial-real-estate/FL/vero-beach/,rofo,,,,,true,
West Palm Beach,FL,Palm Beach County,26.7469,-80.132,122290,33411 33412 33417 33409 33407 33405 33401 33402 33422,2,3,west-palm-beach,"West Palm Beach, FL",west-palm-beach-fl,/commercial-real-estate/FL/west-palm-beach/,rofo,,,,,true,
Weston,FL,Broward County,26.1006,-80.4054,68837,33326 33327 33331 33332,1,3,weston,"Weston, FL",weston-fl,/commercial-real-estate/FL/weston/,rofo,,,,,true,
Windermere,FL,Orange County,28.5028,-81.5377,3086,34786,1,3,windermere,"Windermere, FL",windermere-fl,/commercial-real-estate/FL/windermere/,rofo,,,,,true,
Winter Park,FL,Orange County,28.5989,-81.3442,30274,32792 32789 32790,1,3,winter-park,"Winter Park, FL",winter-park-fl,/commercial-real-estate/FL/winter-park/,rofo,,,,,true,
Winter Springs,FL,Seminole County,28.6889,-81.2703,38951,32708 32719,0,3,winter-springs,"Winter Springs, FL",winter-springs-fl,/commercial-real-estate/FL/winter-springs/,officefinder+simplemaps,1663,TRUE,FALSE,3,true,true
Adairsville,GA,Bartow County,34.3709,-84.9212,4999,30103,0,3,adairsville,"Adairsville, GA",adairsville-ga,/commercial-real-estate/GA/adairsville/,officefinder+simplemaps,1352,TRUE,FALSE,3,true,true
Alpharetta,GA,Fulton County,34.0704,-84.2738,66855,30022 30004 30005 30009 30023,5,3,alpharetta,"Alpharetta, GA",alpharetta-ga,/commercial-real-estate/GA/alpharetta/,rofo,,,,,true,
Atlanta,GA,Fulton County,33.749,-84.388,5298788,30334 30331 30332 30309 30308 30354 30327 30322 30326 30324 30319 30342 30305 30307 30306 30316 30317 30314 30315 30312 30313 30310 30311 30303 30363 30318 30301 30302 30304 30321 30325 30333 30343 30348 30353 30355 30357 30361 30368 30369 30370 30371 30375 30377 30392 30394 30398 31106 31107 31126 31139 31141 31193,1427,1,atlanta,"Atlanta, GA",atlanta-ga,/commercial-real-estate/GA/atlanta/,rofo,,,,,true,
College Park,GA,Fulton County,33.6363,-84.464,14712,30337 30349,0,3,college-park,"College Park, GA",college-park-ga,/commercial-real-estate/GA/college-park/,officefinder+simplemaps,2316,TRUE,FALSE,3,true,true
Conyers,GA,Rockdale County,33.6646,-83.9966,18512,30013 30012 30094,1,3,conyers,"Conyers, GA",conyers-ga,/commercial-real-estate/GA/conyers/,rofo,,,,,true,
Cumming,GA,Forsyth County,34.2063,-84.1339,8469,30040 30041,1,3,cumming,"Cumming, GA",cumming-ga,/commercial-real-estate/GA/cumming/,rofo,,,,,true,
Decatur,GA,Dekalb County,33.7711,-84.2963,24518,30030 30031 30036,2,3,decatur,"Decatur, GA",decatur-ga,/commercial-real-estate/GA/decatur/,rofo,,,,,true,
Doraville,GA,Dekalb County,33.9073,-84.2711,11134,30340 30360 30362,0,3,doraville,"Doraville, GA",doraville-ga,/commercial-real-estate/GA/doraville/,officefinder+simplemaps,2196,TRUE,FALSE,3,true,true
Duluth,GA,Gwinnett County,34.0053,-84.1492,32426,30097 30096 30098,4,3,duluth,"Duluth, GA",duluth-ga,/commercial-real-estate/GA/duluth/,rofo,,,,,true,
Dunwoody,GA,Dekalb County,33.9418,-84.3122,51758,30338 30346 30360 30356 31146,0,3,dunwoody,"Dunwoody, GA",dunwoody-ga,/commercial-real-estate/GA/dunwoody/,officefinder+simplemaps,500,TRUE,FALSE,3,true,true
Fayetteville,GA,Fayette County,33.4501,-84.471,19719,30215 30214,1,3,fayetteville,"Fayetteville, GA",fayetteville-ga,/commercial-real-estate/GA/fayetteville/,rofo,,,,,true,
Johns Creek,GA,Fulton County,34.0333,-84.2027,81988,30022 30097 30005,0,3,johns-creek,"Johns Creek, GA",johns-creek-ga,/commercial-real-estate/GA/johns-creek/,officefinder+simplemaps,2335,TRUE,FALSE,3,true,true
Kennesaw,GA,Cobb County,34.026,-84.6177,34605,30144 30152,1,3,kennesaw,"Kennesaw, GA",kennesaw-ga,/commercial-real-estate/GA/kennesaw/,rofo,,,,,true,
Lawrenceville,GA,Gwinnett County,33.9523,-83.9932,30954,30046 30049,1,3,lawrenceville,"Lawrenceville, GA",lawrenceville-ga,/commercial-real-estate/GA/lawrenceville/,rofo,,,,,true,
Norcross,GA,Gwinnett County,33.9379,-84.2065,18007,30071,1,3,norcross,"Norcross, GA",norcross-ga,/commercial-real-estate/GA/norcross/,rofo,,,,,true,
Peachtree City,GA,Fayette County,33.3942,-84.571,39576,30269 31169,0,3,peachtree-city,"Peachtree City, GA",peachtree-city-ga,/commercial-real-estate/GA/peachtree-city/,officefinder+simplemaps,2556,TRUE,FALSE,3,true,true
Peachtree Corners,GA,Gwinnett County,33.967,-84.232,42373,30071 30092 30360 30010,1,3,peachtree-corners,"Peachtree Corners, GA",peachtree-corners-ga,/commercial-real-estate/GA/peachtree-corners/,rofo,,,,,true,
Sandy Springs,GA,Fulton County,33.9366,-84.3703,107087,30350 30327 30328 30342 30358 31150 31156,0,2,sandy-springs,"Sandy Springs, GA",sandy-springs-ga,/commercial-real-estate/GA/sandy-springs/,officefinder+simplemaps,2264,TRUE,FALSE,2,true,true
Savannah,GA,Chatham County,32.0286,-81.1821,324227,31302 31409 31408 31401 31405 31404 31407 31406 31421 31419 31415 31403 31412 31416 31418 31420,1,3,savannah,"Savannah, GA",savannah-ga,/commercial-real-estate/GA/savannah/,rofo,,,,,true,
Snellville,GA,Gwinnett County,33.8562,-84.0038,21620,30078,1,3,snellville,"Snellville, GA",snellville-ga,/commercial-real-estate/GA/snellville/,rofo,,,,,true,
Sugar Hill,GA,Gwinnett County,34.108,-84.0558,26128,30518,0,3,sugar-hill,"Sugar Hill, GA",sugar-hill-ga,/commercial-real-estate/GA/sugar-hill/,officefinder+simplemaps,2195,TRUE,FALSE,3,true,true
Tyrone,GA,Fayette County,33.4752,-84.5941,7896,30290,0,3,tyrone,"Tyrone, GA",tyrone-ga,/commercial-real-estate/GA/tyrone/,officefinder+simplemaps,2555,TRUE,FALSE,3,true,true
Winder,GA,Barrow County,33.9917,-83.7218,19437,30680,1,3,winder,"Winder, GA",winder-ga,/commercial-real-estate/GA/winder/,rofo,,,,,true,
Honolulu,HI,Honolulu County,21.3069,-157.8583,345482,96859 96858 96850 96819 96820 96822 96826 96813 96815 96814 96817 96816 96818 96848 96801 96802 96803 96804 96805 96806 96807 96808 96809 96810 96811 96812 96823 96828 96830 96836 96837 96838 96839 96840 96841 96843 96844 96846 96847 96849 96898,501,2,honolulu,"Honolulu, HI",honolulu-hi,/commercial-real-estate/HI/honolulu/,rofo,,,,,true,
Bettendorf,IA,Scott County,41.5657,-90.4765,39647,52722,0,3,bettendorf,"Bettendorf, IA",bettendorf-ia,/commercial-real-estate/IA/bettendorf/,officefinder+simplemaps,518,TRUE,FALSE,3,true,true
Cedar Rapids,IA,Linn County,41.9662,-91.6783,195323,52404 52405 52401 52411 52402 52403 52406 52407 52408 52409 52410 52497 52498 52499,1,3,cedar-rapids,"Cedar Rapids, IA",cedar-rapids-ia,/commercial-real-estate/IA/cedar-rapids/,rofo,,,,,true,
Council Bluffs,IA,Pottawattamie County,41.2369,-95.8516,62586,51503 51501 51502,0,3,council-bluffs,"Council Bluffs, IA",council-bluffs-ia,/commercial-real-estate/IA/council-bluffs/,officefinder+simplemaps,1384,TRUE,FALSE,3,true,true
Davenport,IA,Scott County,41.5565,-90.6053,281044,52802 52803 52801 52806 52807 52804 52805 52808 52809,1,3,davenport,"Davenport, IA",davenport-ia,/commercial-real-estate/IA/davenport/,rofo,,,,,true,
Des Moines,IA,Polk County,41.5868,-93.625,570091,50309 50312 50314 50315 50316 50317 50310 50313 50319 50321 50320 50311 50301 50302 50303 50304 50305 50306 50307 50308 50318 50328 50329 50330 50331 50332 50335 50340 50380 50381 50391 50392 50393 50394 50395 50396 50936 50940 50947 50950 50980 50981 50982 50983,601,2,des-moines,"Des Moines, IA",des-moines-ia,/commercial-real-estate/IA/des-moines/,rofo,,,,,true,
Johnston,IA,Polk County,41.691,-93.7234,24384,50131,1,3,johnston,"Johnston, IA",johnston-ia,/commercial-real-estate/IA/johnston/,rofo,,,,,true,
West Des Moines,IA,Polk County,41.5521,-93.7806,71083,50265 50266 50061 50336 50339 50359 50360 50361 50362 50363 50364 50367 50368 50369 50398,1,3,west-des-moines,"West Des Moines, IA",west-des-moines-ia,/commercial-real-estate/IA/west-des-moines/,rofo,,,,,true,
Boise,ID,Ada County,43.615,-116.2023,448305,83703 83702 83706 83705 83704 83709 83712 83716 83713 83725 83720 83701 83708 83715 83717 83722 83724 83728 83729 83735 83756 83799,501,2,boise,"Boise, ID",boise-id,/commercial-real-estate/ID/boise/,rofo,,,,,true,
Coeur D'Alene,ID,Kootenai County,47.704,-116.7936,131592,83815 83814 83816,0,2,coeur-d-alene,"Coeur D'Alene, ID",coeur-d-alene-id,/commercial-real-estate/ID/coeur-d-alene/,officefinder+simplemaps,2676,TRUE,FALSE,2,true,true
Idaho Falls,ID,Bonneville County,43.4917,-112.0333,111137,83401 83402 83404 83415,200,3,idaho-falls,"Idaho Falls, ID",idaho-falls-id,/commercial-real-estate/ID/idaho-falls/,rofo,,,,,true,
Meridian,ID,Ada County,43.6116,-116.3977,130138,83646 83642 83680,1,3,meridian,"Meridian, ID",meridian-id,/commercial-real-estate/ID/meridian/,rofo,,,,,true,
Addison,IL,Dupage County,41.9313,-88.0085,35489,60101,0,3,addison,"Addison, IL",addison-il,/commercial-real-estate/IL/addison/,officefinder+simplemaps,1140,TRUE,FALSE,3,true,true
Algonquin,IL,Mchenry County,42.1629,-88.3159,30067,60102,1,3,algonquin,"Algonquin, IL",algonquin-il,/commercial-real-estate/IL/algonquin/,rofo,,,,,true,
Arlington Heights,IL,Cook County,42.0955,-87.9826,76005,60005 60004,1,3,arlington-heights,"Arlington Heights, IL",arlington-heights-il,/commercial-real-estate/IL/arlington-heights/,rofo,,,,,true,
Aurora,IL,Kane County,41.7638,-88.2902,179898,60505 60506 60504 60502 60503 60519 60507 60568 60569 60572 60598 60599,1,3,aurora,"Aurora, IL",aurora-il,/commercial-real-estate/IL/aurora/,rofo,,,,,true,
Bannockburn,IL,Lake County,42.1932,-87.8695,1148,60015,0,3,bannockburn,"Bannockburn, IL",bannockburn-il,/commercial-real-estate/IL/bannockburn/,officefinder+simplemaps,1197,TRUE,FALSE,3,true,true
Bedford Park,IL,Cook County,41.7669,-87.7915,586,60638 60501,0,3,bedford-park,"Bedford Park, IL",bedford-park-il,/commercial-real-estate/IL/bedford-park/,officefinder+simplemaps,2600,TRUE,FALSE,3,true,true
Belleville,IL,St. Clair County,38.5164,-89.99,41370,62221 62220 62226 62223,1,3,belleville,"Belleville, IL",belleville-il,/commercial-real-estate/IL/belleville/,rofo,,,,,true,
Bloomingdale,IL,Dupage County,41.9497,-88.0895,22457,60108 60117,0,3,bloomingdale,"Bloomingdale, IL",bloomingdale-il,/commercial-real-estate/IL/bloomingdale/,officefinder+simplemaps,1164,TRUE,FALSE,3,true,true
Burr Ridge,IL,Dupage County,41.7485,-87.92,11141,60527,0,3,burr-ridge,"Burr Ridge, IL",burr-ridge-il,/commercial-real-estate/IL/burr-ridge/,officefinder+simplemaps,614,TRUE,FALSE,3,true,true
Champaign,IL,Champaign County,40.1142,-88.2737,153687,61822 61820 61821 61824 61825 61826,1,3,champaign,"Champaign, IL",champaign-il,/commercial-real-estate/IL/champaign/,rofo,,,,,true,
Chicago,IL,Cook County,41.8781,-87.6298,8609571,60018 60649 60641 60640 60643 60642 60645 60644 60647 60646 60616 60617 60614 60615 60612 60613 60610 60611 60618 60619 60631 60827 60661 60660 60638 60639 60634 60636 60637 60630 60632 60633 60605 60604 60607 60606 60601 60603 60602 60609 60608 60106 60659 60652 60653 60656 60657 60654 60655 60651 60623 60622 60621 60620 60626 60625 60624 60629 60628 60707 60499 60664 60666 60668 60669 60670 60673 60674 60675 60677 60678 60680 60681 60684 60685 60686 60687 60688 60689 60690 60694 60695 60696 60699,2120,1,chicago,"Chicago, IL",chicago-il,/commercial-real-estate/IL/chicago/,rofo,,,,,true,
Cicero,IL,Cook County,41.8445,-87.7593,82797,60804,0,3,cicero,"Cicero, IL",cicero-il,/commercial-real-estate/IL/cicero/,officefinder+simplemaps,2523,TRUE,FALSE,2,true,true
Crystal Lake,IL,Mchenry County,42.2333,-88.3351,40579,60014 60012 60039,0,3,crystal-lake,"Crystal Lake, IL",crystal-lake-il,/commercial-real-estate/IL/crystal-lake/,officefinder+simplemaps,1165,TRUE,FALSE,3,true,true
Darien,IL,Dupage County,41.7448,-87.9822,21879,60561,0,3,darien,"Darien, IL",darien-il,/commercial-real-estate/IL/darien/,officefinder+simplemaps,1173,TRUE,FALSE,3,true,true
Downers Grove,IL,Dupage County,41.7949,-88.0172,50054,60515 60516,1,3,downers-grove,"Downers Grove, IL",downers-grove-il,/commercial-real-estate/IL/downers-grove/,rofo,,,,,true,
East Moline,IL,Rock Island County,41.5199,-90.3879,20904,61244 61257,0,3,east-moline,"East Moline, IL",east-moline-il,/commercial-real-estate/IL/east-moline/,officefinder+simplemaps,2198,TRUE,FALSE,3,true,true
Edwardsville,IL,Madison County,38.7922,-89.9874,26474,62026 62025,1,3,edwardsville,"Edwardsville, IL",edwardsville-il,/commercial-real-estate/IL/edwardsville/,rofo,,,,,true,
Evanston,IL,Cook County,42.0451,-87.6877,76340,60201 60202 60208 60204,191,2,evanston,"Evanston, IL",evanston-il,/commercial-real-estate/IL/evanston/,rofo,,,,,true,
Evergreen Park,IL,Cook County,41.7213,-87.7013,19420,60805,0,3,evergreen-park,"Evergreen Park, IL",evergreen-park-il,/commercial-real-estate/IL/evergreen-park/,officefinder+simplemaps,2385,TRUE,FALSE,2,true,true
Glen Ellyn,IL,Dupage County,41.8666,-88.0629,28390,60137 60138,0,3,glen-ellyn,"Glen Ellyn, IL",glen-ellyn-il,/commercial-real-estate/IL/glen-ellyn/,officefinder+simplemaps,1176,TRUE,FALSE,3,true,true
Glenview,IL,Cook County,42.0825,-87.8214,47752,60025 60026,1,3,glenview,"Glenview, IL",glenview-il,/commercial-real-estate/IL/glenview/,rofo,,,,,true,
Gurnee,IL,Lake County,42.3708,-87.9392,30510,60031,0,3,gurnee,"Gurnee, IL",gurnee-il,/commercial-real-estate/IL/gurnee/,officefinder+simplemaps,1202,TRUE,FALSE,3,true,true
Hillside,IL,Cook County,41.8675,-87.9019,8084,60162,0,3,hillside,"Hillside, IL",hillside-il,/commercial-real-estate/IL/hillside/,officefinder+simplemaps,2500,TRUE,FALSE,3,true,true
Hinsdale,IL,Dupage County,41.8007,-87.9273,17175,60521,0,3,hinsdale,"Hinsdale, IL",hinsdale-il,/commercial-real-estate/IL/hinsdale/,officefinder+simplemaps,1177,TRUE,FALSE,3,true,true
Hoffman Estates,IL,Cook County,42.064,-88.1468,51175,60192 60169 60120 60094 60159,1,3,hoffman-estates,"Hoffman Estates, IL",hoffman-estates-il,/commercial-real-estate/IL/hoffman-estates/,rofo,,,,,true,
Lake Forest,IL,Lake County,42.238,-87.8596,19416,60045 60065,1,3,lake-forest,"Lake Forest, IL",lake-forest-il,/commercial-real-estate/IL/lake-forest/,rofo,,,,,true,
Lincolnshire,IL,Lake County,42.1958,-87.9182,7980,60069 60045,0,3,lincolnshire,"Lincolnshire, IL",lincolnshire-il,/commercial-real-estate/IL/lincolnshire/,officefinder+simplemaps,1206,TRUE,FALSE,3,true,true
Lincolnwood,IL,Cook County,42.0054,-87.733,13112,60712,0,3,lincolnwood,"Lincolnwood, IL",lincolnwood-il,/commercial-real-estate/IL/lincolnwood/,officefinder+simplemaps,1207,TRUE,FALSE,3,true,true
Lisle,IL,Dupage County,41.7918,-88.0888,23407,60532,2,3,lisle,"Lisle, IL",lisle-il,/commercial-real-estate/IL/lisle/,rofo,,,,,true,
Lombard,IL,Dupage County,41.8741,-88.0157,43619,60148,0,3,lombard,"Lombard, IL",lombard-il,/commercial-real-estate/IL/lombard/,officefinder+simplemaps,1179,TRUE,FALSE,3,true,true
Moline,IL,Rock Island County,41.4821,-90.492,42197,61265 61266,0,3,moline,"Moline, IL",moline-il,/commercial-real-estate/IL/moline/,officefinder+simplemaps,924,TRUE,FALSE,3,true,true
Morton Grove,IL,Cook County,42.0423,-87.789,24619,60053,0,3,morton-grove,"Morton Grove, IL",morton-grove-il,/commercial-real-estate/IL/morton-grove/,officefinder+simplemaps,1208,TRUE,FALSE,3,true,true
Mount Prospect,IL,Cook County,42.0641,-87.9375,55472,60056,0,3,mount-prospect,"Mount Prospect, IL",mount-prospect-il,/commercial-real-estate/IL/mount-prospect/,officefinder+simplemaps,1168,TRUE,FALSE,2,true,true
Naperville,IL,Dupage County,41.748,-88.1659,150692,60540 60563 60564 60565 60567,1,3,naperville,"Naperville, IL",naperville-il,/commercial-real-estate/IL/naperville/,rofo,,,,,true,
Northbrook,IL,Cook County,42.1292,-87.8352,34585,60062 60082,2,3,northbrook,"Northbrook, IL",northbrook-il,/commercial-real-estate/IL/northbrook/,rofo,,,,,true,
Northfield,IL,Cook County,42.1025,-87.7791,5487,60093,0,3,northfield,"Northfield, IL",northfield-il,/commercial-real-estate/IL/northfield/,officefinder+simplemaps,1211,TRUE,FALSE,3,true,true
Oak Brook,IL,Dupage County,41.8373,-87.9516,8056,60523 60522,3,3,oak-brook,"Oak Brook, IL",oak-brook-il,/commercial-real-estate/IL/oak-brook/,rofo,,,,,true,
Oak Lawn,IL,Cook County,41.7139,-87.7528,56861,60453,0,3,oak-lawn,"Oak Lawn, IL",oak-lawn-il,/commercial-real-estate/IL/oak-lawn/,officefinder+simplemaps,1188,TRUE,FALSE,2,true,true
Oak Park,IL,Cook County,41.8872,-87.7899,53292,60301 60302 60304 60303,1,3,oak-park,"Oak Park, IL",oak-park-il,/commercial-real-estate/IL/oak-park/,rofo,,,,,true,
Oakbrook Terrace,IL,Dupage County,41.8538,-87.9691,2723,60181,0,3,oakbrook-terrace,"Oakbrook Terrace, IL",oakbrook-terrace-il,/commercial-real-estate/IL/oakbrook-terrace/,officefinder+simplemaps,2274,TRUE,FALSE,3,true,true
Orland Park,IL,Cook County,41.6075,-87.8619,57916,60467 60462,1,3,orland-park,"Orland Park, IL",orland-park-il,/commercial-real-estate/IL/orland-park/,rofo,,,,,true,
Palos Heights,IL,Cook County,41.6637,-87.7958,12152,60463,0,3,palos-heights,"Palos Heights, IL",palos-heights-il,/commercial-real-estate/IL/palos-heights/,officefinder+simplemaps,1190,TRUE,FALSE,3,true,true
Park Ridge,IL,Cook County,42.0125,-87.8436,38667,60068,1,3,park-ridge,"Park Ridge, IL",park-ridge-il,/commercial-real-estate/IL/park-ridge/,rofo,,,,,true,
Rock Island,IL,Rock Island County,41.4699,-90.5827,36151,61201 61204,0,3,rock-island,"Rock Island, IL",rock-island-il,/commercial-real-estate/IL/rock-island/,officefinder+simplemaps,2197,TRUE,FALSE,3,true,true
Rockford,IL,Winnebago County,42.2596,-89.064,271411,61101 61114 61109 61108 61104 61107 61103 61102 61105 61106 61110 61125 61126,1,3,rockford,"Rockford, IL",rockford-il,/commercial-real-estate/IL/rockford/,rofo,,,,,true,
Rolling Meadows,IL,Cook County,42.0747,-88.0252,24027,60008,1,3,rolling-meadows,"Rolling Meadows, IL",rolling-meadows-il,/commercial-real-estate/IL/rolling-meadows/,rofo,,,,,true,
Rosemont,IL,Cook County,41.989,-87.8718,3290,60018,1,3,rosemont,"Rosemont, IL",rosemont-il,/commercial-real-estate/IL/rosemont/,rofo,,,,,true,
Saint Charles,IL,,,,,,1,3,saint-charles,"Saint Charles, IL",saint-charles-il,/commercial-real-estate/IL/saint-charles/,rofo,,,,,false,
Schaumburg,IL,Cook County,42.0308,-88.0838,76868,60193 60195 60194 60173 60168 60196,3,3,schaumburg,"Schaumburg, IL",schaumburg-il,/commercial-real-estate/IL/schaumburg/,rofo,,,,,true,
Skokie,IL,Cook County,42.036,-87.74,66219,60076 60077 60203,1,3,skokie,"Skokie, IL",skokie-il,/commercial-real-estate/IL/skokie/,rofo,,,,,true,
South Holland,IL,Cook County,41.5977,-87.6022,20911,60473,0,3,south-holland,"South Holland, IL",south-holland-il,/commercial-real-estate/IL/south-holland/,officefinder+simplemaps,2565,TRUE,FALSE,3,true,true
St. Charles,IL,Kane County,41.9193,-88.3109,32854,60175 60174,0,3,st-charles,"St. Charles, IL",st-charles-il,/commercial-real-estate/IL/st-charles/,officefinder+simplemaps,1180,TRUE,FALSE,3,true,true
Vernon Hills,IL,Lake County,42.234,-87.9608,26876,60061,0,3,vernon-hills,"Vernon Hills, IL",vernon-hills-il,/commercial-real-estate/IL/vernon-hills/,officefinder+simplemaps,1213,TRUE,FALSE,3,true,true
Warrenville,IL,Dupage County,41.8209,-88.1857,14718,60555,1,3,warrenville,"Warrenville, IL",warrenville-il,/commercial-real-estate/IL/warrenville/,rofo,,,,,true,
Westchester,IL,Cook County,41.8492,-87.8906,16436,60154,1,3,westchester,"Westchester, IL",westchester-il,/commercial-real-estate/IL/westchester/,rofo,,,,,true,
Westmont,IL,Dupage County,41.7948,-87.9742,23724,60559,0,3,westmont,"Westmont, IL",westmont-il,/commercial-real-estate/IL/westmont/,officefinder+simplemaps,1182,TRUE,FALSE,3,true,true
Wheaton,IL,Dupage County,41.8561,-88.1085,53557,60187 60189,1,3,wheaton,"Wheaton, IL",wheaton-il,/commercial-real-estate/IL/wheaton/,rofo,,,,,true,
Willowbrook,IL,Dupage County,41.7641,-87.9454,9131,60527,1,3,willowbrook,"Willowbrook, IL",willowbrook-il,/commercial-real-estate/IL/willowbrook/,rofo,,,,,true,
Avon,IN,Hendricks County,39.7601,-86.3916,23437,46123 46213,0,3,avon,"Avon, IN",avon-in,/commercial-real-estate/IN/avon/,officefinder+simplemaps,1749,TRUE,FALSE,3,true,true
Brownsburg,IN,Hendricks County,39.8337,-86.383,31215,46234 46112,2,3,brownsburg,"Brownsburg, IN",brownsburg-in,/commercial-real-estate/IN/brownsburg/,rofo,,,,,true,
Carmel,IN,Hamilton County,39.965,-86.146,101651,46290 46032 46033 46280 46074 46082,1,3,carmel,"Carmel, IN",carmel-in,/commercial-real-estate/IN/carmel/,rofo,,,,,true,
Columbia City,IN,Whitley County,41.1612,-85.4855,9897,46725,0,3,columbia-city,"Columbia City, IN",columbia-city-in,/commercial-real-estate/IN/columbia-city/,officefinder+simplemaps,1702,TRUE,FALSE,3,true,true
Elkhart,IN,Elkhart County,41.6916,-85.9627,149701,46514 46517 46516 46515,0,2,elkhart,"Elkhart, IN",elkhart-in,/commercial-real-estate/IN/elkhart/,officefinder+simplemaps,70,TRUE,FALSE,2,true,true
Huntington,IN,Huntington County,40.881,-85.5063,17030,46750,0,3,huntington,"Huntington, IN",huntington-in,/commercial-real-estate/IN/huntington/,officefinder+simplemaps,1699,TRUE,FALSE,3,true,true
Indianapolis,IN,Marion County,39.7684,-86.1581,1767321,46234 46237 46218 46219 46217 46214 46260 46268 46226 46225 46183 46231 46235 46236 46239 46254 46250 46208 46201 46203 46202 46205 46204 46206 46256 46259 46227 46224 46222 46221 46220 46229 46228 46113 46278 46241 46240 46207 46209 46230 46242 46244 46245 46247 46251 46253 46255 46262 46277 46282 46283 46285 46288 46298,1009,1,indianapolis,"Indianapolis, IN",indianapolis-in,/commercial-real-estate/IN/indianapolis/,rofo,,,,,true,
Lawrence,IN,Marion County,39.8674,-85.9904,49517,46216 46226 46235 46236 46249,0,3,lawrence,"Lawrence, IN",lawrence-in,/commercial-real-estate/IN/lawrence/,officefinder+simplemaps,2202,TRUE,FALSE,3,true,true
Mishawaka,IN,St. Joseph County,41.6742,-86.1666,51021,46544 46545 46530 46546,0,3,mishawaka,"Mishawaka, IN",mishawaka-in,/commercial-real-estate/IN/mishawaka/,officefinder+simplemaps,160,TRUE,FALSE,3,true,true
Plymouth,IN,Marshall County,41.3483,-86.3187,10664,46563,0,3,plymouth,"Plymouth, IN",plymouth-in,/commercial-real-estate/IN/plymouth/,officefinder+simplemaps,2399,TRUE,FALSE,3,true,true
Saint Joseph,IN,Vanderburgh County,38.0662,-87.647,,47720,0,3,saint-joseph,"Saint Joseph, IN",saint-joseph-in,/commercial-real-estate/IN/saint-joseph/,officefinder+simplemaps,2396,FALSE,FALSE,4,true,true
South Bend,IN,St. Joseph County,41.6767,-86.2696,279977,46616 46635 46628 46601 46613 46617 46619 46614 46615 46626 46634 46660 46680 46699,1,3,south-bend,"South Bend, IN",south-bend-in,/commercial-real-estate/IN/south-bend/,rofo,,,,,true,
Edwardsville,KS,Wyandotte County,39.0765,-94.8166,4724,66111 66113,0,3,edwardsville,"Edwardsville, KS",edwardsville-ks,/commercial-real-estate/KS/edwardsville/,officefinder+simplemaps,2608,TRUE,FALSE,3,true,true
Hutchinson,KS,Reno County,38.0671,-97.9081,39709,67502 67501,1,3,hutchinson,"Hutchinson, KS",hutchinson-ks,/commercial-real-estate/KS/hutchinson/,rofo,,,,,true,
Kansas City,KS,Wyandotte County,39.1235,-94.7443,155135,66101 66102 66103 66104 66105 66106 66109 66160 66112 66111 66115 66118 66110 66117 66119,0,2,kansas-city,"Kansas City, KS",kansas-city-ks,/commercial-real-estate/KS/kansas-city/,officefinder+simplemaps,1589,TRUE,FALSE,2,true,true
Leawood,KS,Johnson County,38.9075,-94.6258,33809,66211 66209 66206 66224,1,3,leawood,"Leawood, KS",leawood-ks,/commercial-real-estate/KS/leawood/,rofo,,,,,true,
Lenexa,KS,Johnson County,38.9609,-94.8018,58384,66214 66215 66219 66227 66220 66216 66250,0,3,lenexa,"Lenexa, KS",lenexa-ks,/commercial-real-estate/KS/lenexa/,officefinder+simplemaps,1806,TRUE,FALSE,3,true,true
Merriam,KS,Johnson County,39.0186,-94.6933,11085,66203 66202 66204,0,3,merriam,"Merriam, KS",merriam-ks,/commercial-real-estate/KS/merriam/,officefinder+simplemaps,1808,TRUE,FALSE,3,true,true
Mission,KS,Johnson County,39.027,-94.6568,9915,66202 66205 66222 66285,0,3,mission,"Mission, KS",mission-ks,/commercial-real-estate/KS/mission/,officefinder+simplemaps,1809,TRUE,FALSE,3,true,true
Overland Park,KS,Johnson County,38.887,-94.687,200306,66214 66210 66211 66212 66213 66221 66223 66209 66202 66207 66204 66013 66251 66085 66224 66201 66225 66276 66282 66283,3,3,overland-park,"Overland Park, KS",overland-park-ks,/commercial-real-estate/KS/overland-park/,rofo,,,,,true,
Roeland Park,KS,Johnson County,39.0359,-94.6374,6763,66205,0,3,roeland-park,"Roeland Park, KS",roeland-park-ks,/commercial-real-estate/KS/roeland-park/,officefinder+simplemaps,2299,TRUE,FALSE,3,true,true
Wichita,KS,Sedgwick County,37.6872,-97.3301,519036,67230 67235 67260 67217 67216 67215 67214 67213 67212 67211 67210 67219 67218 67223 67220 67226 67202 67203 67204 67205 67206 67207 67208 67209 67201 67275 67276 67277 67278,451,2,wichita,"Wichita, KS",wichita-ks,/commercial-real-estate/KS/wichita/,rofo,,,,,true,
Erlanger,KY,Kenton County,39.0109,-84.5864,19875,41018 41017 41051,0,3,erlanger,"Erlanger, KY",erlanger-ky,/commercial-real-estate/KY/erlanger/,officefinder+simplemaps,433,TRUE,FALSE,3,true,true
Fort Mitchell,KY,Kenton County,39.046,-84.5562,8713,41011 41017,0,3,fort-mitchell,"Fort Mitchell, KY",fort-mitchell-ky,/commercial-real-estate/KY/fort-mitchell/,officefinder+simplemaps,1794,TRUE,FALSE,3,true,true
Fort Wright,KY,Kenton County,39.0463,-84.5362,5887,41011 41015 41017,0,3,fort-wright,"Fort Wright, KY",fort-wright-ky,/commercial-real-estate/KY/fort-wright/,officefinder+simplemaps,1792,TRUE,FALSE,3,true,true
Jeffersontown,KY,Jefferson County,38.2049,-85.5701,29199,40299 40220 40223 40224,0,3,jeffersontown,"Jeffersontown, KY",jeffersontown-ky,/commercial-real-estate/KY/jeffersontown/,officefinder+simplemaps,2381,TRUE,FALSE,3,true,true
Lexington,KY,Fayette County,38.0423,-84.4587,323725,40526 40509 40504 40502 40503 40508 40505 40507 40517 40536 40513 40511 40510 40516 40515 40514 40506 40512 40522 40523 40524 40533 40544 40546 40550 40555 40574 40575 40576 40577 40578 40579 40580 40581 40582 40583 40588 40591 40598,4,3,lexington,"Lexington, KY",lexington-ky,/commercial-real-estate/KY/lexington/,rofo,,,,,true,
Louisville,KY,Jefferson County,38.2527,-85.7585,988018,40245 40242 40241 40218 40219 40214 40216 40211 40213 40059 40291 40299 40220 40223 40222 40229 40228 40023 40272 40207 40209 40258 40118 40018 40027 40225 40261 40268 40269 40281,704,2,louisville,"Louisville, KY",louisville-ky,/commercial-real-estate/KY/louisville/,rofo,,,,,true,
Baton Rouge,LA,East Baton Rouge County,30.442,-91.1311,654357,70836 70808 70809 70802 70803 70801 70806 70807 70805 70820 70825 70819 70813 70812 70815 70814 70816 70804 70821 70822 70823 70827 70831 70833 70835 70873 70874 70891 70892 70893 70894 70895 70898,3,3,baton-rouge,"Baton Rouge, LA",baton-rouge-la,/commercial-real-estate/LA/baton-rouge/,rofo,,,,,true,
Harahan,LA,Jefferson County,29.9374,-90.2031,8904,70123,0,3,harahan,"Harahan, LA",harahan-la,/commercial-real-estate/LA/harahan/,officefinder+simplemaps,1979,TRUE,FALSE,3,true,true
Harvey,LA,Jefferson County,29.8876,-90.0666,20915,70058 70059 70060,1,3,harvey,"Harvey, LA",harvey-la,/commercial-real-estate/LA/harvey/,rofo,,,,,true,
Metairie,LA,Jefferson County,29.9977,-90.178,139729,70002 70003 70001 70006 70005 70004 70009 70010 70011 70033 70055,3,3,metairie,"Metairie, LA",metairie-la,/commercial-real-estate/LA/metairie/,rofo,,,,,true,
Monroe,LA,Ouachita County,32.5185,-92.0774,121132,71212 71209 71203 71202 71201 71207 71210 71213 71217,1,3,monroe,"Monroe, LA",monroe-la,/commercial-real-estate/LA/monroe/,rofo,,,,,true,
New Orleans,LA,Orleans County,30.0687,-89.9288,928503,70139 70130 70131 70148 70114 70115 70116 70117 70112 70113 70118 70119 70129 70128 70125 70124 70127 70126 70122 70163 70142 70145 70146 70150 70151 70152 70153 70154 70156 70157 70158 70159 70160 70161 70162 70164 70165 70166 70167 70170 70172 70174 70175 70176 70177 70178 70179 70181 70182 70184 70185 70186 70187 70189 70190 70195,4,3,new-orleans,"New Orleans, LA",new-orleans-la,/commercial-real-estate/LA/new-orleans/,rofo,,,,,true,
Shreveport,LA,Caddo County,32.4653,-93.7955,276074,71129 71101 71103 71104 71105 71106 71107 71108 71109 71119 71118 71102 71120 71130 71133 71134 71135 71136 71138 71148 71149 71151 71152 71153 71154 71156 71161 71162 71163 71164 71165 71166,2,3,shreveport,"Shreveport, LA",shreveport-la,/commercial-real-estate/LA/shreveport/,rofo,,,,,true,
Acton,MA,Middlesex County,42.4843,-71.4378,24155,01718 01720,0,3,acton,"Acton, MA",acton-ma,/commercial-real-estate/MA/acton/,officefinder+simplemaps,1367,FALSE,FALSE,3,true,true
Agawam,MA,Hampden County,42.0657,-72.6526,28539,01030 01001,0,3,agawam,"Agawam, MA",agawam-ma,/commercial-real-estate/MA/agawam/,officefinder+simplemaps,1368,TRUE,FALSE,3,true,true
Andover,MA,Essex County,42.6466,-71.1651,36652,01810 01812 01899 05501,1,3,andover,"Andover, MA",andover-ma,/commercial-real-estate/MA/andover/,rofo,,,,,true,
Arlington,MA,Middlesex County,42.4187,-71.1639,46350,02476 02474 02475,0,3,arlington,"Arlington, MA",arlington-ma,/commercial-real-estate/MA/arlington/,officefinder+simplemaps,1370,FALSE,FALSE,2,true,true
Ashland,MA,Middlesex County,42.2573,-71.4687,18873,01721,0,3,ashland,"Ashland, MA",ashland-ma,/commercial-real-estate/MA/ashland/,officefinder+simplemaps,1371,FALSE,FALSE,3,true,true
Auburn,MA,Worcester County,42.1972,-71.8453,16970,01501,0,3,auburn,"Auburn, MA",auburn-ma,/commercial-real-estate/MA/auburn/,officefinder+simplemaps,1372,FALSE,FALSE,3,true,true
Avon,MA,Norfolk County,42.1267,-71.0492,4774,02322,0,3,avon,"Avon, MA",avon-ma,/commercial-real-estate/MA/avon/,officefinder+simplemaps,1373,FALSE,FALSE,3,true,true
Bedford,MA,Middlesex County,42.4969,-71.2783,14727,01730 01731,0,3,bedford,"Bedford, MA",bedford-ma,/commercial-real-estate/MA/bedford/,officefinder+simplemaps,1374,FALSE,FALSE,3,true,true
Bellingham,MA,Norfolk County,42.0777,-71.4741,17410,02019,0,3,bellingham,"Bellingham, MA",bellingham-ma,/commercial-real-estate/MA/bellingham/,officefinder+simplemaps,1375,FALSE,FALSE,3,true,true
Beverly,MA,Essex County,42.5681,-70.8627,42665,01965 01915,0,3,beverly,"Beverly, MA",beverly-ma,/commercial-real-estate/MA/beverly/,officefinder+simplemaps,1376,TRUE,FALSE,3,true,true
Billerica,MA,Middlesex County,42.5587,-71.2673,42003,01821 01862 01822 01865 01866,0,3,billerica,"Billerica, MA",billerica-ma,/commercial-real-estate/MA/billerica/,officefinder+simplemaps,1377,FALSE,FALSE,3,true,true
Boston,MA,Suffolk County,42.3601,-71.0589,4453352,02120 02121 02122 02124 02125 02126 02127 02128 02129 02210 02215 02467 02119 02118 02111 02110 02113 02115 02114 02116 02199 02134 02136 02135 02133 02132 02131 02130 02203 02205 02163 02108 02109 02112 02117 02123 02137 02196 02201 02206 02211 02212 02217 02222 02241 02283 02284 02293 02297 02298,1211,1,boston,"Boston, MA",boston-ma,/commercial-real-estate/MA/boston/,rofo,,,,,true,
Boxborough,MA,Middlesex County,42.4884,-71.5178,5496,01719,1,3,boxborough,"Boxborough, MA",boxborough-ma,/commercial-real-estate/MA/boxborough/,rofo,,,,,true,
Braintree,MA,Norfolk County,42.2039,-71.0022,38899,02184 02185,0,3,braintree,"Braintree, MA",braintree-ma,/commercial-real-estate/MA/braintree/,officefinder+simplemaps,2107,TRUE,FALSE,3,true,true
Brookline,MA,Norfolk County,42.3243,-71.1408,63266,02467 02446 02445 02447,1,3,brookline,"Brookline, MA",brookline-ma,/commercial-real-estate/MA/brookline/,rofo,,,,,true,
Burlington,MA,Middlesex County,42.5022,-71.2027,26274,01803 01805,1,3,burlington,"Burlington, MA",burlington-ma,/commercial-real-estate/MA/burlington/,rofo,,,,,true,
Cambridge,MA,Middlesex County,42.3736,-71.1097,118796,02142 02140 02141 02139 02138 02238 02477,363,2,cambridge,"Cambridge, MA",cambridge-ma,/commercial-real-estate/MA/cambridge/,rofo,,,,,true,
Canton,MA,Norfolk County,42.175,-71.1264,24748,02021,1,3,canton,"Canton, MA",canton-ma,/commercial-real-estate/MA/canton/,rofo,,,,,true,
Charlestown,MA,,,,,,1,3,charlestown,"Charlestown, MA",charlestown-ma,/commercial-real-estate/MA/charlestown/,rofo,,,,,false,
Concord,MA,Middlesex County,42.462,-71.3639,18223,01742 01731,1,3,concord,"Concord, MA",concord-ma,/commercial-real-estate/MA/concord/,rofo,,,,,true,
Dedham,MA,Norfolk County,42.2467,-71.1777,25237,02026 02027,1,3,dedham,"Dedham, MA",dedham-ma,/commercial-real-estate/MA/dedham/,rofo,,,,,true,
Dover,MA,Norfolk County,42.2366,-71.2842,5930,02030,0,3,dover,"Dover, MA",dover-ma,/commercial-real-estate/MA/dover/,officefinder+simplemaps,2078,FALSE,FALSE,4,true,true
Fall River,MA,Bristol County,41.7136,-71.1015,94082,02724 02723 02720 02721 02717 02790 02747 02722,0,3,fall-river,"Fall River, MA",fall-river-ma,/commercial-real-estate/MA/fall-river/,officefinder+simplemaps,1592,TRUE,FALSE,3,true,true
Framingham,MA,Middlesex County,42.3085,-71.4368,72399,01701 01702 01703 01704 01705,1,3,framingham,"Framingham, MA",framingham-ma,/commercial-real-estate/MA/framingham/,rofo,,,,,true,
Franklin,MA,Norfolk County,42.0862,-71.4113,33154,02038,0,3,franklin,"Franklin, MA",franklin-ma,/commercial-real-estate/MA/franklin/,officefinder+simplemaps,2464,TRUE,FALSE,3,true,true
Hanover,MA,Plymouth County,42.1224,-70.8566,14845,02339,0,3,hanover,"Hanover, MA",hanover-ma,/commercial-real-estate/MA/hanover/,officefinder+simplemaps,2590,FALSE,FALSE,3,true,true
Hingham,MA,Plymouth County,42.2176,-70.8854,24283,02043 02018 02044,1,3,hingham,"Hingham, MA",hingham-ma,/commercial-real-estate/MA/hingham/,rofo,,,,,true,
Holliston,MA,Middlesex County,42.1977,-71.445,15094,01746,0,3,holliston,"Holliston, MA",holliston-ma,/commercial-real-estate/MA/holliston/,officefinder+simplemaps,2076,FALSE,FALSE,3,true,true
Hudson,MA,Middlesex County,42.3887,-71.5465,20077,01749,0,3,hudson,"Hudson, MA",hudson-ma,/commercial-real-estate/MA/hudson/,officefinder+simplemaps,2460,FALSE,FALSE,3,true,true
Lowell,MA,Middlesex County,42.6389,-71.3217,118368,01851 01850 01852 01854 01853,0,2,lowell,"Lowell, MA",lowell-ma,/commercial-real-estate/MA/lowell/,officefinder+simplemaps,2323,TRUE,FALSE,2,true,true
Mansfield,MA,Bristol County,42.0163,-71.2187,23931,02048,0,3,mansfield,"Mansfield, MA",mansfield-ma,/commercial-real-estate/MA/mansfield/,officefinder+simplemaps,2108,FALSE,FALSE,3,true,true
Marlborough,MA,Middlesex County,42.3494,-71.5468,41647,01752,2,3,marlborough,"Marlborough, MA",marlborough-ma,/commercial-real-estate/MA/marlborough/,rofo,,,,,true,
Middleton,MA,Essex County,42.6043,-71.0164,9816,01949,1,3,middleton,"Middleton, MA",middleton-ma,/commercial-real-estate/MA/middleton/,rofo,,,,,true,
Milton,MA,Norfolk County,42.2412,-71.0844,28587,02186 02187,1,3,milton,"Milton, MA",milton-ma,/commercial-real-estate/MA/milton/,rofo,,,,,true,
Natick,MA,Middlesex County,42.2847,-71.3497,36873,01760,0,3,natick,"Natick, MA",natick-ma,/commercial-real-estate/MA/natick/,officefinder+simplemaps,442,FALSE,FALSE,3,true,true
Newton,MA,Middlesex County,42.3316,-71.2085,89044,02464 02466 02461 02462 02468 02465 02467 02460 02458 02459 02456 02495,1,3,newton,"Newton, MA",newton-ma,/commercial-real-estate/MA/newton/,rofo,,,,,true,
North Andover,MA,Essex County,42.6713,-71.0865,31490,01845,0,3,north-andover,"North Andover, MA",north-andover-ma,/commercial-real-estate/MA/north-andover/,officefinder+simplemaps,2613,FALSE,FALSE,3,true,true
Peabody,MA,Essex County,42.5335,-70.9725,54695,01960 01961,1,3,peabody,"Peabody, MA",peabody-ma,/commercial-real-estate/MA/peabody/,rofo,,,,,true,
Quincy,MA,Norfolk County,42.2506,-71.0187,102114,02169 02171 02170 02269,1,3,quincy,"Quincy, MA",quincy-ma,/commercial-real-estate/MA/quincy/,rofo,,,,,true,
Randolph,MA,Norfolk County,42.1778,-71.0539,34878,02368,0,3,randolph,"Randolph, MA",randolph-ma,/commercial-real-estate/MA/randolph/,officefinder+simplemaps,2458,TRUE,FALSE,3,true,true
Rockland,MA,Plymouth County,42.1295,-70.91,17701,02370,0,3,rockland,"Rockland, MA",rockland-ma,/commercial-real-estate/MA/rockland/,officefinder+simplemaps,2462,FALSE,FALSE,3,true,true
